{"features":[{"geometry":{"coordinates":[37.595293886782,55.692552369816],"type":"Point"},"properties":{"DatasetId":2028,"VersionNumber":1,"ReleaseNumber":1,"RowId":"806e7b12-cf5e-4a12-b454-05c3e6f74141","Attributes":{"global_id":39812917,"system_object_id":"1","ID":1,"Name":"Мобильный пункт приема вторсырья № 1","AdmArea":["Юго-Западный административный округ"],"District":["Академический район"],"Address":"Большая Черёмушкинская улица, дом 2, корпус 2","NameOfBusinessEntity":"ООО «МКМ-Логистика»","WorkingHours":"понедельник выходной; вторник 08:30-09:30; 16:30-17:30 среда выходной; четверг выходной; пятница выходной; суббота выходной; воскресенье выходной","ClarificationOfWorkingHours":"каждый 1 вторник месяца - 08:30-09:30; каждый 3 вторник месяца - 16:30-17:30","geoData":{"type":"Point","coordinates":[37.595293886782,55.692552369816]}}},"type":"Feature"},{"geometry":{"coordinates":[37.589862873796,55.684774759185],"type":"Point"},"properties":{"DatasetId":2028,"VersionNumber":1,"ReleaseNumber":1,"RowId":"2c6e03f4-9d4a-4d19-a719-69ead56b262f","Attributes":{"global_id":39812918,"system_object_id":"2","ID":2,"Name":"Мобильный пункт приема вторсырья № 2","AdmArea":["Юго-Западный административный округ"],"District":["Академический район"],"Address":"Большая Черёмушкинская улица, дом 14, корпус 2","NameOfBusinessEntity":"ООО «МКМ-Логистика»","WorkingHours":"понедельник выходной; вторник 09:45-10:45; 17:45-18:45 среда выходной; четверг выходной; пятница выходной; суббота выходной; воскресенье выходной","ClarificationOfWorkingHours":"каждый 1 вторник месяца - 09:45-10:45; каждый 3 вторник месяца - 17:45-18:45","geoData":{"type":"Point","coordinates":[37.589862873796,55.684774759185]}}},"type":"Feature"},{"geometry":{"coordinates":[37.580193131397,55.678303908084],"type":"Point"},"properties":{"DatasetId":2028,"VersionNumber":1,"ReleaseNumber":1,"RowId":"c2426911-cf25-42b5-b2a3-334dc9261ae7","Attributes":{"global_id":39812920,"system_object_id":"3","ID":3,"Name":"Мобильный пункт приема вторсырья № 3","AdmArea":["Юго-Западный административный округ"],"District":["Академический район"],"Address":"Большая Черёмушкинская улица, дом 40, корпус 3","NameOfBusinessEntity":"ООО «МКМ-Логистика»","WorkingHours":"понедельник выходной; вторник 11:00-12:00; 19:00-20:00 среда выходной; четверг выходной; пятница выходной; суббота выходной; воскресенье выходной","ClarificationOfWorkingHours":"каждый 1 вторник месяца - 11:00-12:00; каждый 3 вторник месяца - 19:00-20:00","geoData":{"type":"Point","coordinates":[37.580193131397,55.678303908084]}}},"type":"Feature"},{"geometry":{"coordinates":[37.57741587022,55.679425724167],"type":"Point"},"properties":{"DatasetId":2028,"VersionNumber":1,"ReleaseNumber":1,"RowId":"f79f2bda-fbc4-4640-a7d3-f9dd34fb3b37","Attributes":{"global_id":39812922,"system_object_id":"4","ID":4,"Name":"Мобильный пункт приема вторсырья № 4","AdmArea":["Юго-Западный административный округ"],"District":["Академический район"],"Address":"Новочерёмушкинская улица, дом 29","NameOfBusinessEntity":"ООО «МКМ-Логистика»","WorkingHours":"понедельник выходной; вторник 11:00-12:00; 19:00-20:00 среда выходной; четверг выходной; пятница выходной; суббота выходной; воскресенье выходной","ClarificationOfWorkingHours":"каждый 1 вторник месяца - 11:00-12:00; каждый 3 вторник месяца - 19:00-20:00","geoData":{"type":"Point","coordinates":[37.57741587022,55.679425724167]}}},"type":"Feature"},{"geometry":{"coordinates":[37.561342710999,55.682804205747],"type":"Point"},"properties":{"DatasetId":2028,"VersionNumber":1,"ReleaseNumber":1,"RowId":"e9108b05-502b-42c2-9390-3feade0da8ba","Attributes":{"global_id":39812924,"system_object_id":"5","ID":5,"Name":"Мобильный пункт приема вторсырья № 5","AdmArea":["Юго-Западный административный округ"],"District":["Академический район"],"Address":"улица Кржижановского, дом 4, корпус 1","NameOfBusinessEntity":"ООО «МКМ-Логистика»","WorkingHours":"понедельник выходной; вторник 12:15-13:15; 20:15-21:15 среда выходной; четверг выходной; пятница выходной; суббота выходной; воскресенье выходной","ClarificationOfWorkingHours":"каждый 1 вторник месяца - 12:15-13:15; каждый 3 вторник месяца - 20:15-21:15","geoData":{"type":"Point","coordinates":[37.561342710999,55.682804205747]}}},"type":"Feature"},{"geometry":{"coordinates":[37.591198237433,55.687741539802],"type":"Point"},"properties":{"DatasetId":2028,"VersionNumber":1,"ReleaseNumber":1,"RowId":"aebaa98e-bcc9-41a3-8805-e7f46a4dafff","Attributes":{"global_id":39812926,"system_object_id":"6","ID":6,"Name":"Мобильный пункт приема вторсырья № 6","AdmArea":["Юго-Западный административный округ"],"District":["Академический район"],"Address":"улица Винокурова, дом 11, корпус 2","NameOfBusinessEntity":"ООО «МКМ-Логистика»","WorkingHours":"понедельник выходной; вторник 09:45-10:45; 17:45-18:45 среда выходной; четверг выходной; пятница выходной; суббота выходной; воскресенье выходной","ClarificationOfWorkingHours":"каждый 2 вторник месяца - 09:45-10:45; каждый 4 вторник месяца - 17:45-18:45","geoData":{"type":"Point","coordinates":[37.591198237433,55.687741539802]}}},"type":"Feature"},{"geometry":{"coordinates":[37.584562544126,55.688702145839],"type":"Point"},"properties":{"DatasetId":2028,"VersionNumber":1,"ReleaseNumber":1,"RowId":"e7144fb7-b262-481b-85bf-ed942d2d790d","Attributes":{"global_id":39812927,"system_object_id":"7","ID":7,"Name":"Мобильный пункт приема вторсырья № 7","AdmArea":["Юго-Западный административный округ"],"District":["Академический район"],"Address":"улица Винокурова, дом 6","NameOfBusinessEntity":"ООО «МКМ-Логистика»","WorkingHours":"понедельник выходной; вторник 09:45-10:45; 17:45-18:45 среда выходной; четверг выходной; пятница выходной; суббота выходной; воскресенье выходной","ClarificationOfWorkingHours":"каждый 2 вторник месяца - 09:45-10:45; каждый 4 вторник месяца - 17:45-18:45","geoData":{"type":"Point","coordinates":[37.584562544126,55.688702145839]}}},"type":"Feature"},{"geometry":{"coordinates":[37.54976107879,55.688940928115],"type":"Point"},"properties":{"DatasetId":2028,"VersionNumber":1,"ReleaseNumber":1,"RowId":"b9cf868e-0a29-473e-ad50-f47d5d0de948","Attributes":{"global_id":39812929,"system_object_id":"8","ID":8,"Name":"Мобильный пункт приема вторсырья № 8","AdmArea":["Юго-Западный административный округ"],"District":["Гагаринский район"],"Address":"Ленинский проспект, дом 71","NameOfBusinessEntity":"ООО «МКМ-Логистика»","WorkingHours":"понедельник выходной; вторник 12:00-13:00; 20:15-21:15 среда выходной; четверг выходной; пятница выходной; суббота выходной; воскресенье выходной","ClarificationOfWorkingHours":"каждый 2 вторник месяца - 12:00-13:00; каждый 4 вторник месяца - 20:15-21:15","geoData":{"type":"Point","coordinates":[37.54976107879,55.688940928115]}}},"type":"Feature"},{"geometry":{"coordinates":[37.546668068774,55.686640031762],"type":"Point"},"properties":{"DatasetId":2028,"VersionNumber":1,"ReleaseNumber":1,"RowId":"519bcc2f-138d-4da7-bcf6-a6c6cb9abd32","Attributes":{"global_id":39812930,"system_object_id":"9","ID":9,"Name":"Мобильный пункт приема вторсырья № 9","AdmArea":["Юго-Западный административный округ"],"District":["Гагаринский район"],"Address":"Ломоносовский проспект, дом 7, корпус 1","NameOfBusinessEntity":"ООО «МКМ-Логистика»","WorkingHours":"понедельник выходной; вторник 12:00-13:00; 20:15-21:15 среда выходной; четверг выходной; пятница выходной; суббота выходной; воскресенье выходной","ClarificationOfWorkingHours":"каждый 2 вторник месяца - 12:00-13:00; каждый 4 вторник месяца - 20:15-21:15","geoData":{"type":"Point","coordinates":[37.546668068774,55.686640031762]}}},"type":"Feature"},{"geometry":{"coordinates":[37.524098791084,55.679257893112],"type":"Point"},"properties":{"DatasetId":2028,"VersionNumber":1,"ReleaseNumber":1,"RowId":"776e4777-b489-45b7-a41d-99dcb5d4be73","Attributes":{"global_id":39812932,"system_object_id":"10","ID":10,"Name":"Мобильный пункт приема вторсырья № 10","AdmArea":["Юго-Западный административный округ"],"District":["Ломоносовский район"],"Address":"улица Марии Ульяновой, дом 9, корпус 2","NameOfBusinessEntity":"ООО «МКМ-Логистика»","WorkingHours":"понедельник выходной; вторник 12:15-13:15; 20:15-21:15 среда выходной; четверг выходной; пятница выходной; суббота выходной; воскресенье выходной","ClarificationOfWorkingHours":"каждый 1 вторник месяца - 12:15-13:15; каждый 3 вторник месяца - 20:15-21:15","geoData":{"type":"Point","coordinates":[37.524098791084,55.679257893112]}}},"type":"Feature"},{"geometry":{"coordinates":[37.539751041985,55.669604196005],"type":"Point"},"properties":{"DatasetId":2028,"VersionNumber":1,"ReleaseNumber":1,"RowId":"acb553d2-b370-47b2-935e-a295770e61f0","Attributes":{"global_id":39812934,"system_object_id":"11","ID":11,"Name":"Мобильный пункт приема вторсырья № 11","AdmArea":["Юго-Западный административный округ"],"District":["Ломоносовский район"],"Address":"улица Академика Пилюгина, дом 8, корпус 1","NameOfBusinessEntity":"ООО «МКМ-Логистика»","WorkingHours":"понедельник выходной; вторник 08:30-09:30; 16:30-17:30 среда выходной; четверг выходной; пятница выходной; суббота выходной; воскресенье выходной","ClarificationOfWorkingHours":"каждый 2 вторник месяца - 08:30-09:30; каждый 4 вторник месяца - 16:30-17:30","geoData":{"type":"Point","coordinates":[37.539751041985,55.669604196005]}}},"type":"Feature"},{"geometry":{"coordinates":[37.531805156734,55.686157174094],"type":"Point"},"properties":{"DatasetId":2028,"VersionNumber":1,"ReleaseNumber":1,"RowId":"6d23b44e-0c47-4b16-84c2-10a9f73499a1","Attributes":{"global_id":39812936,"system_object_id":"12","ID":12,"Name":"Мобильный пункт приема вторсырья № 12","AdmArea":["Юго-Западный административный округ"],"District":["Ломоносовский район"],"Address":"улица Строителей, дом 13, корпус 1","NameOfBusinessEntity":"ООО «МКМ-Логистика»","WorkingHours":"понедельник выходной; вторник 10:50-11:50; 19:00-20:00 среда выходной; четверг выходной; пятница выходной; суббота выходной; воскресенье выходной","ClarificationOfWorkingHours":"каждый 2 вторник месяца - 10:50-11:50; каждый 4 вторник месяца - 19:00-20:00","geoData":{"type":"Point","coordinates":[37.531805156734,55.686157174094]}}},"type":"Feature"},{"geometry":{"coordinates":[37.545950520576,55.681013571084],"type":"Point"},"properties":{"DatasetId":2028,"VersionNumber":1,"ReleaseNumber":1,"RowId":"7177cb2e-4c89-425b-bbd1-7e50cce0a14a","Attributes":{"global_id":39812938,"system_object_id":"13","ID":13,"Name":"Мобильный пункт приема вторсырья № 13","AdmArea":["Юго-Западный административный округ"],"District":["Ломоносовский район"],"Address":"улица Панфёрова, дом 18","NameOfBusinessEntity":"ООО «МКМ-Логистика»","WorkingHours":"понедельник выходной; вторник 10:50-11:50; 19:00-20:00 среда выходной; четверг выходной; пятница выходной; суббота выходной; воскресенье выходной","ClarificationOfWorkingHours":"каждый 2 вторник месяца - 10:50-11:50; каждый 4 вторник месяца - 19:00-20:00","geoData":{"type":"Point","coordinates":[37.545950520576,55.681013571084]}}},"type":"Feature"},{"geometry":{"coordinates":[37.529481517826,55.672069649762],"type":"Point"},"properties":{"DatasetId":2028,"VersionNumber":1,"ReleaseNumber":1,"RowId":"15c0ab1c-6de5-4611-a523-4483301b333a","Attributes":{"global_id":39812939,"system_object_id":"14","ID":14,"Name":"Мобильный пункт приема вторсырья № 14","AdmArea":["Юго-Западный административный округ"],"District":["Ломоносовский район"],"Address":"улица Академика Пилюгина, дом 26, корпус 1","NameOfBusinessEntity":"ООО «МКМ-Логистика»","WorkingHours":"понедельник выходной; вторник 08:30-09:30; 16:30-17:30 среда выходной; четверг выходной; пятница выходной; суббота выходной; воскресенье выходной","ClarificationOfWorkingHours":"каждый 2 вторник месяца - 08:30-09:30; каждый 4 вторник месяца - 16:30-17:30","geoData":{"type":"Point","coordinates":[37.529481517826,55.672069649762]}}},"type":"Feature"},{"geometry":{"coordinates":[37.523510212215,55.676800895922],"type":"Point"},"properties":{"DatasetId":2028,"VersionNumber":1,"ReleaseNumber":1,"RowId":"403d7a7f-0bf3-4a1b-86d7-63cd2fdaec14","Attributes":{"global_id":39812941,"system_object_id":"15","ID":15,"Name":"Мобильный пункт приема вторсырья № 15","AdmArea":["Юго-Западный административный округ"],"District":["Ломоносовский район"],"Address":"Ленинский проспект, дом 88, корпус 2","NameOfBusinessEntity":"ООО «МКМ-Логистика»","WorkingHours":"понедельник выходной; вторник 09:40-10:40; 17:45-18:45 среда выходной; четверг выходной; пятница выходной; суббота выходной; воскресенье выходной","ClarificationOfWorkingHours":"каждый 2 вторник месяца - 09:40-10:40; каждый 4 вторник месяца - 17:45-18:45","geoData":{"type":"Point","coordinates":[37.523510212215,55.676800895922]}}},"type":"Feature"},{"geometry":{"coordinates":[37.521796527589,55.683095310768],"type":"Point"},"properties":{"DatasetId":2028,"VersionNumber":1,"ReleaseNumber":1,"RowId":"5eca2540-7fd1-405b-a902-b5edba40cc03","Attributes":{"global_id":39812944,"system_object_id":"16","ID":16,"Name":"Мобильный пункт приема вторсырья № 16","AdmArea":["Юго-Западный административный округ"],"District":["Ломоносовский район"],"Address":"улица Марии Ульяновой, дом 16","NameOfBusinessEntity":"ООО «МКМ-Логистика»","WorkingHours":"понедельник выходной; вторник 09:40-10:40; 17:45-18:45 среда выходной; четверг выходной; пятница выходной; суббота выходной; воскресенье выходной","ClarificationOfWorkingHours":"каждый 2 вторник месяца - 09:40-10:40; каждый 4 вторник месяца - 17:45-18:45","geoData":{"type":"Point","coordinates":[37.521796527589,55.683095310768]}}},"type":"Feature"},{"geometry":{"coordinates":[37.515293885555,55.660282710789],"type":"Point"},"properties":{"DatasetId":2028,"VersionNumber":1,"ReleaseNumber":1,"RowId":"ccd9803c-e825-43fd-937a-7ea73a8e0454","Attributes":{"global_id":39812945,"system_object_id":"17","ID":17,"Name":"Стационарный пункт приема вторсырья № 1","AdmArea":["Юго-Западный административный округ"],"District":["Обручевский район"],"Address":"улица Обручева, дом 11","NameOfBusinessEntity":"ООО «МКМ-Логистика»","WorkingHours":"понедельник 09:00-16:00; вторник 09:00-16:00; среда 09:00-16:00; четверг 09:00-16:00; пятница 09:00-16:00; суббота 09:00-16:00; воскресенье выходной","ClarificationOfWorkingHours":null,"geoData":{"type":"Point","coordinates":[37.515293885555,55.660282710789]}}},"type":"Feature"},{"geometry":{"coordinates":[37.529002766984,55.662462883252],"type":"Point"},"properties":{"DatasetId":2028,"VersionNumber":1,"ReleaseNumber":1,"RowId":"d7cfccf9-0fea-4059-985d-960e7624a881","Attributes":{"global_id":39812947,"system_object_id":"18","ID":18,"Name":"Стационарный пункт приема вторсырья № 2","AdmArea":["Юго-Западный административный округ"],"District":["Обручевский район"],"Address":"улица Академика Челомея, дом 8Б","NameOfBusinessEntity":"ООО «МКМ-Логистика»","WorkingHours":"понедельник круглосуточно; вторник круглосуточно; среда круглосуточно; четверг круглосуточно; пятница круглосуточно; суббота круглосуточно; воскресенье круглосуточно;","ClarificationOfWorkingHours":null,"geoData":{"type":"Point","coordinates":[37.529002766984,55.662462883252]}}},"type":"Feature"},{"geometry":{"coordinates":[37.529755624362,55.661198289139],"type":"Point"},"properties":{"DatasetId":2028,"VersionNumber":1,"ReleaseNumber":1,"RowId":"dee0589c-ed25-40ca-b8cb-42558eaa12e0","Attributes":{"global_id":39812948,"system_object_id":"19","ID":19,"Name":"Стационарный пункт приема вторсырья № 3","AdmArea":["Юго-Западный административный округ"],"District":["Обручевский район"],"Address":"улица Академика Челомея, дом 8, корпус 1","NameOfBusinessEntity":"ООО «МКМ-Логистика»","WorkingHours":"понедельник круглосуточно; вторник круглосуточно; среда круглосуточно; четверг круглосуточно; пятница круглосуточно; суббота круглосуточно; воскресенье круглосуточно;","ClarificationOfWorkingHours":null,"geoData":{"type":"Point","coordinates":[37.529755624362,55.661198289139]}}},"type":"Feature"},{"geometry":{"coordinates":[37.611491232701,55.662588543111],"type":"Point"},"properties":{"DatasetId":2028,"VersionNumber":1,"ReleaseNumber":1,"RowId":"19941545-d633-4ec5-b9a1-d6cc1d1e59b2","Attributes":{"global_id":39812784,"system_object_id":"20","ID":20,"Name":"Мобильный пункт приема вторсырья № 17","AdmArea":["Юго-Западный административный округ"],"District":["район Зюзино"],"Address":"Симферопольский бульвар, дом 2А","NameOfBusinessEntity":"ООО «МКМ-Логистика»","WorkingHours":"понедельник выходной; вторник 11:00-12:00; 19:00-20:00 среда выходной; четверг выходной; пятница выходной; суббота выходной; воскресенье выходной","ClarificationOfWorkingHours":"каждый 1 вторник месяца - 11:00-12:00; каждый 3 вторник месяца - 19:00-20:00","geoData":{"type":"Point","coordinates":[37.611491232701,55.662588543111]}}},"type":"Feature"},{"geometry":{"coordinates":[37.608691462439,55.662528251846],"type":"Point"},"properties":{"DatasetId":2028,"VersionNumber":1,"ReleaseNumber":1,"RowId":"3d447e2a-16e3-41fe-9037-b7e658c7d200","Attributes":{"global_id":39812786,"system_object_id":"21","ID":21,"Name":"Мобильный пункт приема вторсырья № 18","AdmArea":["Юго-Западный административный округ"],"District":["район Зюзино"],"Address":"Фруктовая улица, дом 20","NameOfBusinessEntity":"ООО «МКМ-Логистика»","WorkingHours":"понедельник выходной; вторник 11:00-12:00; 19:00-20:00 среда выходной; четверг выходной; пятница выходной; суббота выходной; воскресенье выходной","ClarificationOfWorkingHours":"каждый 1 вторник месяца - 11:00-12:00; каждый 3 вторник месяца - 19:00-20:00","geoData":{"type":"Point","coordinates":[37.608691462439,55.662528251846]}}},"type":"Feature"},{"geometry":{"coordinates":[37.574533022862,55.657420002095],"type":"Point"},"properties":{"DatasetId":2028,"VersionNumber":1,"ReleaseNumber":1,"RowId":"62af04cc-dc36-48f5-bf37-e824c4a54bf5","Attributes":{"global_id":39812788,"system_object_id":"22","ID":22,"Name":"Мобильный пункт приема вторсырья № 19","AdmArea":["Юго-Западный административный округ"],"District":["район Зюзино"],"Address":"улица Каховка, дом 16, корпус 3","NameOfBusinessEntity":"ООО «МКМ-Логистика»","WorkingHours":"понедельник выходной; вторник 08:30-09:30; 16:30-17:30 среда выходной; четверг выходной; пятница выходной; суббота выходной; воскресенье выходной","ClarificationOfWorkingHours":"каждый 1 вторник месяца - 08:30-09:30; каждый 3 вторник месяца - 16:30-17:30","geoData":{"type":"Point","coordinates":[37.574533022862,55.657420002095]}}},"type":"Feature"},{"geometry":{"coordinates":[37.603767046273,55.647141490231],"type":"Point"},"properties":{"DatasetId":2028,"VersionNumber":1,"ReleaseNumber":1,"RowId":"f8bc90a0-3be5-4ce9-b951-3f2a594ebc54","Attributes":{"global_id":39812790,"system_object_id":"23","ID":23,"Name":"Мобильный пункт приема вторсырья № 20","AdmArea":["Юго-Западный административный округ"],"District":["район Зюзино"],"Address":"Симферопольский бульвар, дом 24, корпус 3","NameOfBusinessEntity":"ООО «МКМ-Логистика»","WorkingHours":"понедельник выходной; вторник 13:15-14:15; 20:15-21:15 среда выходной; четверг выходной; пятница выходной; суббота выходной; воскресенье выходной","ClarificationOfWorkingHours":"каждый 1 вторник месяца - 13:15-14:15; каждый 3 вторник месяца - 20:15-21:15","geoData":{"type":"Point","coordinates":[37.603767046273,55.647141490231]}}},"type":"Feature"},{"geometry":{"coordinates":[37.603184198656,55.659025581171],"type":"Point"},"properties":{"DatasetId":2028,"VersionNumber":1,"ReleaseNumber":1,"RowId":"4d350255-9e46-4230-9a8f-113da116e4bb","Attributes":{"global_id":39812793,"system_object_id":"24","ID":24,"Name":"Мобильный пункт приема вторсырья № 21","AdmArea":["Юго-Западный административный округ"],"District":["район Зюзино"],"Address":"Азовская улица, дом 7, корпус 2","NameOfBusinessEntity":"ООО «МКМ-Логистика»","WorkingHours":"понедельник выходной; вторник 09:45-10:45; 17:45-18:45 среда выходной; четверг выходной; пятница выходной; суббота выходной; воскресенье выходной","ClarificationOfWorkingHours":"каждый 1 вторник месяца - 09:45-10:45; каждый 3 вторник месяца - 17:45-18:45","geoData":{"type":"Point","coordinates":[37.603184198656,55.659025581171]}}},"type":"Feature"},{"geometry":{"coordinates":[37.598051746145,55.659007498135],"type":"Point"},"properties":{"DatasetId":2028,"VersionNumber":1,"ReleaseNumber":1,"RowId":"ec0f80e1-cc98-4d51-a9e1-1f8ee37d819d","Attributes":{"global_id":39812794,"system_object_id":"25","ID":25,"Name":"Мобильный пункт приема вторсырья № 22","AdmArea":["Юго-Западный административный округ"],"District":["район Зюзино"],"Address":"Азовская улица, дом 12, корпус 2","NameOfBusinessEntity":"ООО «МКМ-Логистика»","WorkingHours":"понедельник выходной; вторник 09:45-10:45; 17:45-18:45 среда выходной; четверг выходной; пятница выходной; суббота выходной; воскресенье выходной","ClarificationOfWorkingHours":"каждый 1 вторник месяца - 09:45-10:45; каждый 3 вторник месяца - 17:45-18:45","geoData":{"type":"Point","coordinates":[37.598051746145,55.659007498135]}}},"type":"Feature"},{"geometry":{"coordinates":[37.57055482105,55.65172213593],"type":"Point"},"properties":{"DatasetId":2028,"VersionNumber":1,"ReleaseNumber":1,"RowId":"4bddcebe-6812-4a88-88b2-21fda56c5b6c","Attributes":{"global_id":39812796,"system_object_id":"26","ID":26,"Name":"Мобильный пункт приема вторсырья № 23","AdmArea":["Юго-Западный административный округ"],"District":["район Зюзино"],"Address":"Херсонская улица, дом 14","NameOfBusinessEntity":"ООО «МКМ-Логистика»","WorkingHours":"понедельник выходной; вторник 09:45-10:45; 17:45-18:45 среда выходной; четверг выходной; пятница выходной; суббота выходной; воскресенье выходной","ClarificationOfWorkingHours":"каждый 2 вторник месяца - 09:45-10:45; каждый 4 вторник месяца - 17:45-18:45","geoData":{"type":"Point","coordinates":[37.57055482105,55.65172213593]}}},"type":"Feature"},{"geometry":{"coordinates":[37.584827466286,55.666631256106],"type":"Point"},"properties":{"DatasetId":2028,"VersionNumber":1,"ReleaseNumber":1,"RowId":"ca147312-2cf1-4ee7-890d-441ce5c8da69","Attributes":{"global_id":39812798,"system_object_id":"27","ID":27,"Name":"Стационарный пункт приема вторсырья № 4","AdmArea":["Юго-Западный административный округ"],"District":["район Зюзино"],"Address":"Севастопольский проспект, дом 51","NameOfBusinessEntity":"ООО «МКМ-Логистика»","WorkingHours":"понедельник 09:00-16:00; вторник 09:00-16:00; среда 09:00-16:00; четверг 09:00-16:00; пятница 09:00-16:00; суббота 09:00-16:00; воскресенье выходной","ClarificationOfWorkingHours":null,"geoData":{"type":"Point","coordinates":[37.584827466286,55.666631256106]}}},"type":"Feature"},{"geometry":{"coordinates":[37.519230545675,55.635177432759],"type":"Point"},"properties":{"DatasetId":2028,"VersionNumber":1,"ReleaseNumber":1,"RowId":"c89e8a83-2bff-481a-a734-c5075f09dc60","Attributes":{"global_id":39812799,"system_object_id":"28","ID":28,"Name":"Мобильный пункт приема вторсырья № 24","AdmArea":["Юго-Западный административный округ"],"District":["район Коньково"],"Address":"улица Островитянова, дом 29/120","NameOfBusinessEntity":"ООО «МКМ-Логистика»","WorkingHours":"понедельник 08:30-09:30; 16:30-17:30; вторник выходной; среда выходной; четверг выходной; пятница выходной; суббота выходной; воскресенье выходной","ClarificationOfWorkingHours":"каждый 1 понедельник месяца - 08:30-09:30; каждый 3 понедельник месяца - 16:30-17:30","geoData":{"type":"Point","coordinates":[37.519230545675,55.635177432759]}}},"type":"Feature"},{"geometry":{"coordinates":[37.51992642561,55.644087187774],"type":"Point"},"properties":{"DatasetId":2028,"VersionNumber":1,"ReleaseNumber":1,"RowId":"c2833f41-f677-4234-9aeb-3db62f5b2722","Attributes":{"global_id":39812801,"system_object_id":"29","ID":29,"Name":"Мобильный пункт приема вторсырья № 25","AdmArea":["Юго-Западный административный округ"],"District":["район Коньково"],"Address":"улица Миклухо-Маклая, дом 20","NameOfBusinessEntity":"ООО «МКМ-Логистика»","WorkingHours":"понедельник 09:45-10:45; 17:45-18:45; вторник выходной; среда выходной; четверг выходной; пятница выходной; суббота выходной; воскресенье выходной","ClarificationOfWorkingHours":"каждый 2 понедельник месяца - 09:45-10:45; каждый 4 понедельник месяца - 17:45-18:45","geoData":{"type":"Point","coordinates":[37.51992642561,55.644087187774]}}},"type":"Feature"},{"geometry":{"coordinates":[37.528495656328,55.651196202881],"type":"Point"},"properties":{"DatasetId":2028,"VersionNumber":1,"ReleaseNumber":1,"RowId":"ffcac5da-1742-4d5f-ba2b-8d27369f9d91","Attributes":{"global_id":39812802,"system_object_id":"30","ID":30,"Name":"Мобильный пункт приема вторсырья № 26","AdmArea":["Юго-Западный административный округ"],"District":["район Коньково"],"Address":"улица Бутлерова, дом 14, корпус 1","NameOfBusinessEntity":"ООО «МКМ-Логистика»","WorkingHours":"понедельник 09:45-10:45; 17:45-18:45; вторник выходной; среда выходной; четверг выходной; пятница выходной; суббота выходной; воскресенье выходной","ClarificationOfWorkingHours":"каждый 2 понедельник месяца - 09:45-10:45; каждый 4 понедельник месяца - 17:45-18:45","geoData":{"type":"Point","coordinates":[37.528495656328,55.651196202881]}}},"type":"Feature"},{"geometry":{"coordinates":[37.519666904121,55.626837516251],"type":"Point"},"properties":{"DatasetId":2028,"VersionNumber":1,"ReleaseNumber":1,"RowId":"8dab2d98-3b28-4989-a6c9-de19611ae232","Attributes":{"global_id":39812804,"system_object_id":"31","ID":31,"Name":"Мобильный пункт приема вторсырья № 27","AdmArea":["Юго-Западный административный округ"],"District":["район Коньково"],"Address":"улица Академика Капицы, дом 30, корпус 1","NameOfBusinessEntity":"ООО «МКМ-Логистика»","WorkingHours":"понедельник выходной; вторник выходной; среда выходной; четверг 08:30-09:30; 16:30-17:30; пятница выходной; суббота выходной; воскресенье выходной","ClarificationOfWorkingHours":"каждый 2 четверг месяца - 08:30-09:30; каждый 4 четверг месяца - 16:30-17:30","geoData":{"type":"Point","coordinates":[37.519666904121,55.626837516251]}}},"type":"Feature"},{"geometry":{"coordinates":[37.526494944697,55.631553814024],"type":"Point"},"properties":{"DatasetId":2028,"VersionNumber":1,"ReleaseNumber":1,"RowId":"25d7ef6a-9724-4576-9a69-82e5a35cb519","Attributes":{"global_id":39812805,"system_object_id":"32","ID":32,"Name":"Мобильный пункт приема вторсырья № 28","AdmArea":["Юго-Западный административный округ"],"District":["район Коньково"],"Address":"улица Академика Капицы, дом 4","NameOfBusinessEntity":"ООО «МКМ-Логистика»","WorkingHours":"понедельник выходной; вторник выходной; среда выходной; четверг 08:30-09:30; 16:30-17:30; пятница выходной; суббота выходной; воскресенье выходной","ClarificationOfWorkingHours":"каждый 2 четверг месяца - 08:30-09:30; каждый 4 четверг месяца - 16:30-17:30","geoData":{"type":"Point","coordinates":[37.526494944697,55.631553814024]}}},"type":"Feature"},{"geometry":{"coordinates":[37.539084060853,55.643034543747],"type":"Point"},"properties":{"DatasetId":2028,"VersionNumber":1,"ReleaseNumber":1,"RowId":"44e00cc6-ec7f-4627-9892-ec85f522ed8b","Attributes":{"global_id":39812807,"system_object_id":"33","ID":33,"Name":"Мобильный пункт приема вторсырья № 29","AdmArea":["Юго-Западный административный округ"],"District":["район Коньково"],"Address":"улица Генерала Антонова, дом 10","NameOfBusinessEntity":"ООО «МКМ-Логистика»","WorkingHours":"понедельник выходной; вторник выходной; среда выходной; четверг 09:45-10:45; 17:45-18:45; пятница выходной; суббота выходной; воскресенье выходной","ClarificationOfWorkingHours":"каждый 2 четверг месяца - 09:45-10:45; каждый 4 четверг месяца - 17:45-18:45","geoData":{"type":"Point","coordinates":[37.539084060853,55.643034543747]}}},"type":"Feature"},{"geometry":{"coordinates":[37.537750259387,55.637308992921],"type":"Point"},"properties":{"DatasetId":2028,"VersionNumber":1,"ReleaseNumber":1,"RowId":"f01e8000-6417-4f30-964d-aa8fa246925c","Attributes":{"global_id":39812810,"system_object_id":"34","ID":34,"Name":"Мобильный пункт приема вторсырья № 30","AdmArea":["Юго-Западный административный округ"],"District":["район Коньково"],"Address":"улица Введенского, дом 23, корпус 2","NameOfBusinessEntity":"ООО «МКМ-Логистика»","WorkingHours":"понедельник выходной; вторник выходной; среда выходной; четверг 09:45-10:45; 17:45-18:45; пятница выходной; суббота выходной; воскресенье выходной","ClarificationOfWorkingHours":"каждый 2 четверг месяца - 09:45-10:45; каждый 4 четверг месяца - 17:45-18:45","geoData":{"type":"Point","coordinates":[37.537750259387,55.637308992921]}}},"type":"Feature"},{"geometry":{"coordinates":[37.503242939306,55.64272546982],"type":"Point"},"properties":{"DatasetId":2028,"VersionNumber":1,"ReleaseNumber":1,"RowId":"128661cf-be54-4674-9819-d8e98b545809","Attributes":{"global_id":39812811,"system_object_id":"35","ID":35,"Name":"Мобильный пункт приема вторсырья № 31","AdmArea":["Юго-Западный административный округ"],"District":["район Коньково"],"Address":"улица Академика Волгина, дом 14, корпус 2","NameOfBusinessEntity":"ООО «МКМ-Логистика»","WorkingHours":"понедельник выходной; вторник выходной; среда выходной; четверг 11:00-12:00; 19:00-20:00; пятница выходной; суббота выходной; воскресенье выходной","ClarificationOfWorkingHours":"каждый 2 четверг месяца - 11:00-12:00; каждый 4 четверг месяца -19:00-20:00","geoData":{"type":"Point","coordinates":[37.503242939306,55.64272546982]}}},"type":"Feature"},{"geometry":{"coordinates":[37.509306965428,55.641436409912],"type":"Point"},"properties":{"DatasetId":2028,"VersionNumber":1,"ReleaseNumber":1,"RowId":"a44df3df-aefa-4b93-bced-872732c1f641","Attributes":{"global_id":39812813,"system_object_id":"36","ID":36,"Name":"Мобильный пункт приема вторсырья № 32","AdmArea":["Юго-Западный административный округ"],"District":["район Коньково"],"Address":"улица Академика Арцимовича, дом 12, корпус 1","NameOfBusinessEntity":"ООО «МКМ-Логистика»","WorkingHours":"понедельник выходной; вторник выходной; среда выходной; четверг 11:00-12:00; 19:00-20:00; пятница выходной; суббота выходной; воскресенье выходной","ClarificationOfWorkingHours":"каждый 2 четверг месяца - 11:00-12:00; каждый 4 четверг месяца -19:00-20:00","geoData":{"type":"Point","coordinates":[37.509306965428,55.641436409912]}}},"type":"Feature"},{"geometry":{"coordinates":[37.545658462108,55.641105062107],"type":"Point"},"properties":{"DatasetId":2028,"VersionNumber":1,"ReleaseNumber":1,"RowId":"85d79a1b-882c-4562-99b3-b12d99b89780","Attributes":{"global_id":39812814,"system_object_id":"37","ID":37,"Name":"Стационарный пункт приема вторсырья № 5","AdmArea":["Юго-Западный административный округ"],"District":["район Коньково"],"Address":"улица Введенского, дом 13, корпус 2","NameOfBusinessEntity":"ООО «МКМ-Логистика»","WorkingHours":"понедельник 09:00-16:00; вторник 09:00-16:00; среда 09:00-16:00; четверг 09:00-16:00; пятница 09:00-16:00; суббота 09:00-16:00; воскресенье 09:00-13:00;","ClarificationOfWorkingHours":null,"geoData":{"type":"Point","coordinates":[37.545658462108,55.641105062107]}}},"type":"Feature"},{"geometry":{"coordinates":[37.596722702157,55.688300633079],"type":"Point"},"properties":{"DatasetId":2028,"VersionNumber":1,"ReleaseNumber":1,"RowId":"862b8a8f-5cc0-44d8-9795-75262188faf2","Attributes":{"global_id":39812816,"system_object_id":"38","ID":38,"Name":"Мобильный пункт приема вторсырья № 33","AdmArea":["Юго-Западный административный округ"],"District":["район Котловка"],"Address":"Большая Черёмушкинская улица, дом 11, корпус 3","NameOfBusinessEntity":"ООО «МКМ-Логистика»","WorkingHours":"понедельник выходной; вторник 08:30-09:30; 16:30-17:30 среда выходной; четверг выходной; пятница выходной; суббота выходной; воскресенье выходной","ClarificationOfWorkingHours":"каждый 1 вторник месяца - 08:30-09:30; каждый 3 вторник месяца - 16:30-17:30","geoData":{"type":"Point","coordinates":[37.596722702157,55.688300633079]}}},"type":"Feature"},{"geometry":{"coordinates":[37.594981774323,55.682951135805],"type":"Point"},"properties":{"DatasetId":2028,"VersionNumber":1,"ReleaseNumber":1,"RowId":"0453e37c-77fd-4b74-8e22-d976d32a3ee9","Attributes":{"global_id":39812817,"system_object_id":"39","ID":39,"Name":"Мобильный пункт приема вторсырья № 34","AdmArea":["Юго-Западный административный округ"],"District":["район Котловка"],"Address":"улица Винокурова, дом 24, корпус 4","NameOfBusinessEntity":"ООО «МКМ-Логистика»","WorkingHours":"понедельник выходной; вторник 09:45-10:45; 17:45-18:45 среда выходной; четверг выходной; пятница выходной; суббота выходной; воскресенье выходной","ClarificationOfWorkingHours":"каждый 1 вторник месяца - 09:45-10:45; каждый 3 вторник месяца - 17:45-18:45","geoData":{"type":"Point","coordinates":[37.594981774323,55.682951135805]}}},"type":"Feature"},{"geometry":{"coordinates":[37.600089598621,55.674819155755],"type":"Point"},"properties":{"DatasetId":2028,"VersionNumber":1,"ReleaseNumber":1,"RowId":"fb774321-0cdb-43ea-8eb1-3b31b317b691","Attributes":{"global_id":39812819,"system_object_id":"40","ID":40,"Name":"Мобильный пункт приема вторсырья № 35","AdmArea":["Юго-Западный административный округ"],"District":["район Котловка"],"Address":"Нагорная улица, дом 27, корпус 2","NameOfBusinessEntity":"ООО «МКМ-Логистика»","WorkingHours":"понедельник выходной; вторник выходной; среда выходной; четверг выходной; пятница 08:30-09:30; 16:30-17:30 суббота выходной; воскресенье выходной","ClarificationOfWorkingHours":"каждая 2 пятница месяца - 08:30-09:30; каждая 4 пятница месяца - 16:30-17:30","geoData":{"type":"Point","coordinates":[37.600089598621,55.674819155755]}}},"type":"Feature"},{"geometry":{"coordinates":[37.596465306082,55.677522029214],"type":"Point"},"properties":{"DatasetId":2028,"VersionNumber":1,"ReleaseNumber":1,"RowId":"80c71eef-0b49-4252-afcb-5de1cb7fc3f3","Attributes":{"global_id":39812820,"system_object_id":"41","ID":41,"Name":"Мобильный пункт приема вторсырья № 36","AdmArea":["Юго-Западный административный округ"],"District":["район Котловка"],"Address":"Севастопольский проспект, дом 19, корпус 3","NameOfBusinessEntity":"ООО «МКМ-Логистика»","WorkingHours":"понедельник выходной; вторник выходной; среда выходной; четверг выходной; пятница 08:30-09:30; 16:30-17:30 суббота выходной; воскресенье выходной","ClarificationOfWorkingHours":"каждая 2 пятница месяца - 08:30-09:30; каждая 4 пятница месяца - 16:30-17:30","geoData":{"type":"Point","coordinates":[37.596465306082,55.677522029214]}}},"type":"Feature"},{"geometry":{"coordinates":[37.567612950783,55.573520660001],"type":"Point"},"properties":{"DatasetId":2028,"VersionNumber":1,"ReleaseNumber":1,"RowId":"9024ea05-d1ac-4d70-adab-92ee2f455a0b","Attributes":{"global_id":39812822,"system_object_id":"42","ID":42,"Name":"Мобильный пункт приема вторсырья № 37","AdmArea":["Юго-Западный административный округ"],"District":["район Северное Бутово"],"Address":"улица Знаменские Садки, дом 11","NameOfBusinessEntity":"ООО «МКМ-Логистика»","WorkingHours":"понедельник выходной; вторник выходной; среда выходной; четверг выходной; пятница выходной; суббота 08:30-09:30; воскресенье выходной","ClarificationOfWorkingHours":"каждая 1 и 3 суббота месяца - 08:30-09:30;","geoData":{"type":"Point","coordinates":[37.567612950783,55.573520660001]}}},"type":"Feature"},{"geometry":{"coordinates":[37.564475941285,55.570988092937],"type":"Point"},"properties":{"DatasetId":2028,"VersionNumber":1,"ReleaseNumber":1,"RowId":"b9202b20-f3eb-482c-a8d1-d16c66ba1bdd","Attributes":{"global_id":39812825,"system_object_id":"43","ID":43,"Name":"Мобильный пункт приема вторсырья № 38","AdmArea":["Юго-Западный административный округ"],"District":["район Северное Бутово"],"Address":"Куликовская улица, дом 3","NameOfBusinessEntity":"ООО «МКМ-Логистика»","WorkingHours":"понедельник выходной; вторник выходной; среда выходной; четверг выходной; пятница выходной; суббота 08:30-09:30; воскресенье выходной","ClarificationOfWorkingHours":"каждая 1 и 3 суббота месяца - 08:30-09:30;","geoData":{"type":"Point","coordinates":[37.564475941285,55.570988092937]}}},"type":"Feature"},{"geometry":{"coordinates":[37.568179517335,55.566486463119],"type":"Point"},"properties":{"DatasetId":2028,"VersionNumber":1,"ReleaseNumber":1,"RowId":"7e522f10-e998-419b-8f72-92df409ff26d","Attributes":{"global_id":39812826,"system_object_id":"44","ID":44,"Name":"Мобильный пункт приема вторсырья № 39","AdmArea":["Юго-Западный административный округ"],"District":["район Северное Бутово"],"Address":"улица Грина, дом 9","NameOfBusinessEntity":"ООО «МКМ-Логистика»","WorkingHours":"понедельник выходной; вторник выходной; среда выходной; четверг выходной; пятница выходной; суббота 09:45-10:45; воскресенье выходной","ClarificationOfWorkingHours":"каждая 1 и 3 суббота месяца - 09:45-10:45;","geoData":{"type":"Point","coordinates":[37.568179517335,55.566486463119]}}},"type":"Feature"},{"geometry":{"coordinates":[37.571821309954,55.568449715931],"type":"Point"},"properties":{"DatasetId":2028,"VersionNumber":1,"ReleaseNumber":1,"RowId":"bccd3cf8-b3aa-4abd-b4e9-a361249d9b11","Attributes":{"global_id":39812828,"system_object_id":"45","ID":45,"Name":"Мобильный пункт приема вторсырья № 40","AdmArea":["Юго-Западный административный округ"],"District":["район Северное Бутово"],"Address":"улица Грина, дом 28, корпус 1","NameOfBusinessEntity":"ООО «МКМ-Логистика»","WorkingHours":"понедельник выходной; вторник выходной; среда выходной; четверг выходной; пятница выходной; суббота 09:45-10:45; воскресенье выходной","ClarificationOfWorkingHours":"каждая 1 и 3 суббота месяца - 09:45-10:45;","geoData":{"type":"Point","coordinates":[37.571821309954,55.568449715931]}}},"type":"Feature"},{"geometry":{"coordinates":[37.583758709151,55.566311203048],"type":"Point"},"properties":{"DatasetId":2028,"VersionNumber":1,"ReleaseNumber":1,"RowId":"1bde40e9-4f26-4753-820e-f6126b794919","Attributes":{"global_id":39812829,"system_object_id":"46","ID":46,"Name":"Мобильный пункт приема вторсырья № 41","AdmArea":["Юго-Западный административный округ"],"District":["район Северное Бутово"],"Address":"Коктебельская улица, дом 4, корпус 3","NameOfBusinessEntity":"ООО «МКМ-Логистика»","WorkingHours":"понедельник выходной; вторник выходной; среда выходной; четверг выходной; пятница выходной; суббота 11:00-12:00; воскресенье выходной","ClarificationOfWorkingHours":"каждая 1 и 3 суббота месяца - 11:00-12:00;","geoData":{"type":"Point","coordinates":[37.583758709151,55.566311203048]}}},"type":"Feature"},{"geometry":{"coordinates":[37.585819719298,55.56410665795],"type":"Point"},"properties":{"DatasetId":2028,"VersionNumber":1,"ReleaseNumber":1,"RowId":"cec0f311-526d-4ba2-9b8c-040e83405df5","Attributes":{"global_id":39812831,"system_object_id":"47","ID":47,"Name":"Мобильный пункт приема вторсырья № 42","AdmArea":["Юго-Западный административный округ"],"District":["район Северное Бутово"],"Address":"Коктебельская улица, дом 11","NameOfBusinessEntity":"ООО «МКМ-Логистика»","WorkingHours":"понедельник выходной; вторник выходной; среда выходной; четверг выходной; пятница выходной; суббота 11:00-12:00; воскресенье выходной","ClarificationOfWorkingHours":"каждая 1 и 3 суббота месяца - 11:00-12:00;","geoData":{"type":"Point","coordinates":[37.585819719298,55.56410665795]}}},"type":"Feature"},{"geometry":{"coordinates":[37.516352867223,55.631501555774],"type":"Point"},"properties":{"DatasetId":2028,"VersionNumber":1,"ReleaseNumber":1,"RowId":"c83a6aa6-6175-4c3a-ae91-1d61e4380e8a","Attributes":{"global_id":39812833,"system_object_id":"48","ID":48,"Name":"Мобильный пункт приема вторсырья № 43","AdmArea":["Юго-Западный административный округ"],"District":["район Тёплый Стан"],"Address":"Профсоюзная улица, дом 128","NameOfBusinessEntity":"ООО «МКМ-Логистика»","WorkingHours":"понедельник 08:30-09:30; 16:30-17:30; вторник выходной; среда выходной; четверг выходной; пятница выходной; суббота выходной; воскресенье выходной","ClarificationOfWorkingHours":"каждый 1 понедельник месяца - 08:30-09:30; каждый 3 понедельник месяца - 16:30-17:30","geoData":{"type":"Point","coordinates":[37.516352867223,55.631501555774]}}},"type":"Feature"},{"geometry":{"coordinates":[37.475341410312,55.643039337069],"type":"Point"},"properties":{"DatasetId":2028,"VersionNumber":1,"ReleaseNumber":1,"RowId":"6db306d5-3ed5-4b64-967b-7ea5e12939ef","Attributes":{"global_id":39812835,"system_object_id":"49","ID":49,"Name":"Мобильный пункт приема вторсырья № 44","AdmArea":["Юго-Западный административный округ"],"District":["район Тёплый Стан"],"Address":"Ленинский проспект, дом 135, корпус 1","NameOfBusinessEntity":"ООО «МКМ-Логистика»","WorkingHours":"понедельник 09:45-10:45; 17:45-18:45; вторник выходной; среда выходной; четверг выходной; пятница выходной; суббота выходной; воскресенье выходной","ClarificationOfWorkingHours":"каждый 1 понедельник месяца - 09:45-10:45; каждый 3 понедельник месяца - 17:45-18:45","geoData":{"type":"Point","coordinates":[37.475341410312,55.643039337069]}}},"type":"Feature"},{"geometry":{"coordinates":[37.477161721369,55.646042383186],"type":"Point"},"properties":{"DatasetId":2028,"VersionNumber":1,"ReleaseNumber":1,"RowId":"8c3f6e28-eb22-44b0-8ebd-68f81e0b44cc","Attributes":{"global_id":39812836,"system_object_id":"50","ID":50,"Name":"Мобильный пункт приема вторсырья № 45","AdmArea":["Юго-Западный административный округ"],"District":["район Тёплый Стан"],"Address":"Ленинский проспект, дом 127","NameOfBusinessEntity":"ООО «МКМ-Логистика»","WorkingHours":"понедельник 09:45-10:45; 17:45-18:45; вторник выходной; среда выходной; четверг выходной; пятница выходной; суббота выходной; воскресенье выходной","ClarificationOfWorkingHours":"каждый 1 понедельник месяца - 09:45-10:45; каждый 3 понедельник месяца - 17:45-18:45","geoData":{"type":"Point","coordinates":[37.477161721369,55.646042383186]}}},"type":"Feature"},{"geometry":{"coordinates":[37.486562763294,55.619778238963],"type":"Point"},"properties":{"DatasetId":2028,"VersionNumber":1,"ReleaseNumber":1,"RowId":"e92faadd-367a-4b89-8538-2c7ec1ccc8e7","Attributes":{"global_id":39812838,"system_object_id":"51","ID":51,"Name":"Мобильный пункт приема вторсырья № 46","AdmArea":["Юго-Западный административный округ"],"District":["район Тёплый Стан"],"Address":"улица Генерала Тюленева, дом 23, корпус 1","NameOfBusinessEntity":"ООО «МКМ-Логистика»","WorkingHours":"понедельник 11:00-12:00; 19:00-20:00; вторник выходной; среда выходной; четверг выходной; пятница выходной; суббота выходной; воскресенье выходной","ClarificationOfWorkingHours":"каждый 1 понедельник месяца - 11:00-12:00; каждый 3 понедельник месяца - 19:00-20:00","geoData":{"type":"Point","coordinates":[37.486562763294,55.619778238963]}}},"type":"Feature"},{"geometry":{"coordinates":[37.477649077174,55.631077903914],"type":"Point"},"properties":{"DatasetId":2028,"VersionNumber":1,"ReleaseNumber":1,"RowId":"3ea0e059-9588-489e-9a38-65cbba5c3b31","Attributes":{"global_id":39812839,"system_object_id":"52","ID":52,"Name":"Мобильный пункт приема вторсырья № 47","AdmArea":["Юго-Западный административный округ"],"District":["район Тёплый Стан"],"Address":"улица Академика Варги, дом 4","NameOfBusinessEntity":"ООО «МКМ-Логистика»","WorkingHours":"понедельник 11:00-12:00; 19:00-20:00; вторник выходной; среда выходной; четверг выходной; пятница выходной; суббота выходной; воскресенье выходной","ClarificationOfWorkingHours":"каждый 1 понедельник месяца - 11:00-12:00; каждый 3 понедельник месяца - 19:00-20:00","geoData":{"type":"Point","coordinates":[37.477649077174,55.631077903914]}}},"type":"Feature"},{"geometry":{"coordinates":[37.473958686596,55.632706584864],"type":"Point"},"properties":{"DatasetId":2028,"VersionNumber":1,"ReleaseNumber":1,"RowId":"04ba9281-d61d-48ff-8b9c-b1179c48badd","Attributes":{"global_id":39812840,"system_object_id":"53","ID":53,"Name":"Мобильный пункт приема вторсырья № 48","AdmArea":["Юго-Западный административный округ"],"District":["район Тёплый Стан"],"Address":"улица Академика Варги, дом 28","NameOfBusinessEntity":"ООО «МКМ-Логистика»","WorkingHours":"понедельник 08:30-09:30; 16:30-17:30; вторник выходной; среда выходной; четверг выходной; пятница выходной; суббота выходной; воскресенье выходной","ClarificationOfWorkingHours":"каждый 2 понедельник месяца - 08:30-09:30; каждый 4 понедельник месяца - 16:30-17:30","geoData":{"type":"Point","coordinates":[37.473958686596,55.632706584864]}}},"type":"Feature"},{"geometry":{"coordinates":[37.485108219271,55.644873060827],"type":"Point"},"properties":{"DatasetId":2028,"VersionNumber":1,"ReleaseNumber":1,"RowId":"085e5ee9-d70b-412d-aa2e-0685d0f4616b","Attributes":{"global_id":39812842,"system_object_id":"54","ID":54,"Name":"Мобильный пункт приема вторсырья № 49","AdmArea":["Юго-Западный административный округ"],"District":["район Тёплый Стан"],"Address":"Ленинский проспект, дом 123, корпус 3","NameOfBusinessEntity":"ООО «МКМ-Логистика»","WorkingHours":"понедельник 08:30-09:30; 16:30-17:30; вторник выходной; среда выходной; четверг выходной; пятница выходной; суббота выходной; воскресенье выходной","ClarificationOfWorkingHours":"каждый 2 понедельник месяца - 08:30-09:30; каждый 4 понедельник месяца - 16:30-17:30","geoData":{"type":"Point","coordinates":[37.485108219271,55.644873060827]}}},"type":"Feature"},{"geometry":{"coordinates":[37.484163615597,55.642207531043],"type":"Point"},"properties":{"DatasetId":2028,"VersionNumber":1,"ReleaseNumber":1,"RowId":"19827b7c-0151-46da-8445-223eeeeee3bc","Attributes":{"global_id":39812844,"system_object_id":"55","ID":55,"Name":"Мобильный пункт приема вторсырья № 50","AdmArea":["Юго-Западный административный округ"],"District":["район Тёплый Стан"],"Address":"улица Академика Бакулева, дом 10","NameOfBusinessEntity":"ООО «МКМ-Логистика»","WorkingHours":"понедельник 11:00-12:00; 19:00-20:00; вторник выходной; среда выходной; четверг выходной; пятница выходной; суббота выходной; воскресенье выходной","ClarificationOfWorkingHours":"каждый 2 понедельник месяца - 11:00-12:00; каждый 4 понедельник месяца - 19:00-20:00","geoData":{"type":"Point","coordinates":[37.484163615597,55.642207531043]}}},"type":"Feature"},{"geometry":{"coordinates":[37.51585921333,55.633015760156],"type":"Point"},"properties":{"DatasetId":2028,"VersionNumber":1,"ReleaseNumber":1,"RowId":"48024bb8-8784-42e4-9c46-9e324d7716b7","Attributes":{"global_id":39812845,"system_object_id":"56","ID":56,"Name":"Мобильный пункт приема вторсырья № 51","AdmArea":["Юго-Западный административный округ"],"District":["район Тёплый Стан"],"Address":"улица Островитянова, дом 30, корпус 2","NameOfBusinessEntity":"ООО «МКМ-Логистика»","WorkingHours":"понедельник 11:00-12:00; 19:00-20:00; вторник выходной; среда выходной; четверг выходной; пятница выходной; суббота выходной; воскресенье выходной","ClarificationOfWorkingHours":"каждый 2 понедельник месяца - 11:00-12:00; каждый 4 понедельник месяца - 19:00-20:00","geoData":{"type":"Point","coordinates":[37.51585921333,55.633015760156]}}},"type":"Feature"},{"geometry":{"coordinates":[37.505931434357,55.622327926218],"type":"Point"},"properties":{"DatasetId":2028,"VersionNumber":1,"ReleaseNumber":1,"RowId":"c6b02bdf-146a-49cd-ae8f-94ae8e786ace","Attributes":{"global_id":39812847,"system_object_id":"57","ID":57,"Name":"Стационарный пункт приема вторсырья № 6","AdmArea":["Юго-Западный административный округ"],"District":["район Тёплый Стан"],"Address":"Профсоюзная улица, дом 152, корпус 1","NameOfBusinessEntity":"ООО «МКМ-Логистика»","WorkingHours":"понедельник 09:00-16:00; вторник 09:00-16:00; среда 09:00-16:00; четверг 09:00-16:00; пятница 09:00-16:00; суббота 09:00-16:00; воскресенье 09:00-13:00;","ClarificationOfWorkingHours":null,"geoData":{"type":"Point","coordinates":[37.505931434357,55.622327926218]}}},"type":"Feature"},{"geometry":{"coordinates":[37.569636925187,55.674127997926],"type":"Point"},"properties":{"DatasetId":2028,"VersionNumber":1,"ReleaseNumber":1,"RowId":"a5aad603-12c4-41a3-8938-23aa2c2123de","Attributes":{"global_id":39812848,"system_object_id":"58","ID":58,"Name":"Мобильный пункт приема вторсырья № 52","AdmArea":["Юго-Западный административный округ"],"District":["район Черёмушки"],"Address":"Новочерёмушкинская улица, дом 40, корпус 1","NameOfBusinessEntity":"ООО «МКМ-Логистика»","WorkingHours":"понедельник выходной; вторник выходной; среда выходной; четверг выходной; пятница 11:00-12:00; 19:00-20:00; суббота выходной; воскресенье выходной","ClarificationOfWorkingHours":"каждая 2 пятница месяца - 11:00-12:00; каждая 4 пятница месяца - 19:00-20:00","geoData":{"type":"Point","coordinates":[37.569636925187,55.674127997926]}}},"type":"Feature"},{"geometry":{"coordinates":[37.566391286913,55.670750458961],"type":"Point"},"properties":{"DatasetId":2028,"VersionNumber":1,"ReleaseNumber":1,"RowId":"f8d11ecc-2d85-42c5-8eb5-fd3f09b81c24","Attributes":{"global_id":39812850,"system_object_id":"59","ID":59,"Name":"Мобильный пункт приема вторсырья № 53","AdmArea":["Юго-Западный административный округ"],"District":["район Черёмушки"],"Address":"Новочерёмушкинская улица, дом 50","NameOfBusinessEntity":"ООО «МКМ-Логистика»","WorkingHours":"понедельник выходной; вторник выходной; среда выходной; четверг выходной; пятница 11:00-12:00; 19:00-20:00; суббота выходной; воскресенье выходной","ClarificationOfWorkingHours":"каждая 2 пятница месяца - 11:00-12:00; каждая 4 пятница месяца - 19:00-20:00","geoData":{"type":"Point","coordinates":[37.566391286913,55.670750458961]}}},"type":"Feature"},{"geometry":{"coordinates":[37.573501510777,55.666132723019],"type":"Point"},"properties":{"DatasetId":2028,"VersionNumber":1,"ReleaseNumber":1,"RowId":"b10a350f-f4dd-4ee9-ae5f-8ba1f1996bcb","Attributes":{"global_id":39812851,"system_object_id":"60","ID":60,"Name":"Мобильный пункт приема вторсырья № 54","AdmArea":["Юго-Западный административный округ"],"District":["район Черёмушки"],"Address":"улица Цюрупы, дом 7, корпус 2","NameOfBusinessEntity":"ООО «МКМ-Логистика»","WorkingHours":"понедельник выходной; вторник выходной; среда выходной; четверг выходной; пятница 12:15-13:15; 20:15-21:15; суббота выходной; воскресенье выходной","ClarificationOfWorkingHours":"каждая 2 пятница месяца - 12:15-13:15; каждая 4 пятница месяца - 20:15-21:15","geoData":{"type":"Point","coordinates":[37.573501510777,55.666132723019]}}},"type":"Feature"},{"geometry":{"coordinates":[37.566252228605,55.664606446074],"type":"Point"},"properties":{"DatasetId":2028,"VersionNumber":1,"ReleaseNumber":1,"RowId":"1ad81681-9d01-49e5-a2aa-784014552695","Attributes":{"global_id":39812853,"system_object_id":"61","ID":61,"Name":"Мобильный пункт приема вторсырья № 55","AdmArea":["Юго-Западный административный округ"],"District":["район Черёмушки"],"Address":"Новочерёмушкинская улица, дом 63, корпус 2","NameOfBusinessEntity":"ООО «МКМ-Логистика»","WorkingHours":"понедельник выходной; вторник выходной; среда выходной; четверг выходной; пятница 12:15-13:15; 20:15-21:15; суббота выходной; воскресенье выходной","ClarificationOfWorkingHours":"каждая 2 пятница месяца - 12:15-13:15; каждая 4 пятница месяца - 20:15-21:15","geoData":{"type":"Point","coordinates":[37.566252228605,55.664606446074]}}},"type":"Feature"},{"geometry":{"coordinates":[37.560893877648,55.677305474136],"type":"Point"},"properties":{"DatasetId":2028,"VersionNumber":1,"ReleaseNumber":1,"RowId":"8742dd45-f18a-4fa2-99fd-e07817569e19","Attributes":{"global_id":39812854,"system_object_id":"62","ID":62,"Name":"Мобильный пункт приема вторсырья № 56","AdmArea":["Юго-Западный административный округ"],"District":["район Черёмушки"],"Address":"Профсоюзная улица, дом 30, корпус 1","NameOfBusinessEntity":"ООО «МКМ-Логистика»","WorkingHours":"понедельник выходной; вторник выходной; среда 08:30-09:30; 16:30-17:30; четверг выходной; пятница выходной; суббота выходной; воскресенье выходной","ClarificationOfWorkingHours":"каждая 2 среда месяца - 08:30-09:30; каждая 4 среда месяца - 16:30-17:30","geoData":{"type":"Point","coordinates":[37.560893877648,55.677305474136]}}},"type":"Feature"},{"geometry":{"coordinates":[37.563148817895,55.65339747079],"type":"Point"},"properties":{"DatasetId":2028,"VersionNumber":1,"ReleaseNumber":1,"RowId":"99041fb5-f146-4976-8df3-0a0b3cfb9c4d","Attributes":{"global_id":39812856,"system_object_id":"63","ID":63,"Name":"Мобильный пункт приема вторсырья № 57","AdmArea":["Юго-Западный административный округ"],"District":["район Черёмушки"],"Address":"Херсонская улица, дом 22, корпус 1","NameOfBusinessEntity":"ООО «МКМ-Логистика»","WorkingHours":"понедельник выходной; вторник выходной; среда 09:45-10:45; 17:45-18:45; четверг выходной; пятница выходной; суббота выходной; воскресенье выходной","ClarificationOfWorkingHours":"каждая 2 среда месяца - 09:45-10:45; каждая 4 среда месяца - 17:45-18:45","geoData":{"type":"Point","coordinates":[37.563148817895,55.65339747079]}}},"type":"Feature"},{"geometry":{"coordinates":[37.569553953194,55.657764601782],"type":"Point"},"properties":{"DatasetId":2028,"VersionNumber":1,"ReleaseNumber":1,"RowId":"0d9fc16d-061a-4cc0-973e-a23cfaf2d272","Attributes":{"global_id":39812858,"system_object_id":"64","ID":64,"Name":"Мобильный пункт приема вторсырья № 58","AdmArea":["Юго-Западный административный округ"],"District":["район Черёмушки"],"Address":"улица Каховка, дом 18, корпус 1","NameOfBusinessEntity":"ООО «МКМ-Логистика»","WorkingHours":"понедельник выходной; вторник выходной; среда выходной; четверг выходной; пятница 08:30-09:30; 16:30-17:30 суббота выходной; воскресенье выходной","ClarificationOfWorkingHours":"каждая 1 пятница месяца - 08:30-09:30; каждая 3 пятница месяца - 16:30-17:30","geoData":{"type":"Point","coordinates":[37.569553953194,55.657764601782]}}},"type":"Feature"},{"geometry":{"coordinates":[37.549286907559,55.675440788155],"type":"Point"},"properties":{"DatasetId":2028,"VersionNumber":1,"ReleaseNumber":1,"RowId":"a6ad5aa3-c64f-4e47-812d-2c7d1332c82b","Attributes":{"global_id":39812861,"system_object_id":"65","ID":65,"Name":"Мобильный пункт приема вторсырья № 59","AdmArea":["Юго-Западный административный округ"],"District":["район Черёмушки"],"Address":"улица Архитектора Власова, дом 21, корпус 1","NameOfBusinessEntity":"ООО «МКМ-Логистика»","WorkingHours":"понедельник выходной; вторник выходной; среда 08:30-09:30; 16:30-17:30; четверг выходной; пятница выходной; суббота выходной; воскресенье выходной","ClarificationOfWorkingHours":"каждая 2 среда месяца - 08:30-09:30; каждая 4 среда месяца - 16:30-17:30","geoData":{"type":"Point","coordinates":[37.549286907559,55.675440788155]}}},"type":"Feature"},{"geometry":{"coordinates":[37.548580659269,55.668113833172],"type":"Point"},"properties":{"DatasetId":2028,"VersionNumber":1,"ReleaseNumber":1,"RowId":"ee442958-16d1-4f7a-acd6-8b33da970ad8","Attributes":{"global_id":39812862,"system_object_id":"66","ID":66,"Name":"Стационарный пункт приема вторсырья № 7","AdmArea":["Юго-Западный административный округ"],"District":["район Черёмушки"],"Address":"Профсоюзная улица, дом 60","NameOfBusinessEntity":"ООО «МКМ-Логистика»","WorkingHours":"понедельник круглосуточно; вторник круглосуточно; среда круглосуточно; четверг круглосуточно; пятница круглосуточно; суббота круглосуточно; воскресенье круглосуточно;","ClarificationOfWorkingHours":null,"geoData":{"type":"Point","coordinates":[37.548580659269,55.668113833172]}}},"type":"Feature"},{"geometry":{"coordinates":[37.546269345247,55.668733819179],"type":"Point"},"properties":{"DatasetId":2028,"VersionNumber":1,"ReleaseNumber":1,"RowId":"79636ee6-9d75-46f1-81ac-18ec9cd9c3f4","Attributes":{"global_id":39812864,"system_object_id":"67","ID":67,"Name":"Стационарный пункт приема вторсырья № 8","AdmArea":["Юго-Западный административный округ"],"District":["район Черёмушки"],"Address":"улица Архитектора Власова, дом 37, корпус 4","NameOfBusinessEntity":"ООО «МКМ-Логистика»","WorkingHours":"понедельник круглосуточно; вторник круглосуточно; среда круглосуточно; четверг круглосуточно; пятница круглосуточно; суббота круглосуточно; воскресенье круглосуточно;","ClarificationOfWorkingHours":null,"geoData":{"type":"Point","coordinates":[37.546269345247,55.668733819179]}}},"type":"Feature"},{"geometry":{"coordinates":[37.549314681671,55.546139007061],"type":"Point"},"properties":{"DatasetId":2028,"VersionNumber":1,"ReleaseNumber":1,"RowId":"8d08fd23-d8ee-4072-864d-dd33184a250a","Attributes":{"global_id":39812866,"system_object_id":"68","ID":68,"Name":"Мобильный пункт приема вторсырья № 60","AdmArea":["Юго-Западный административный округ"],"District":["район Южное Бутово"],"Address":"бульвар Адмирала Ушакова, дом 11","NameOfBusinessEntity":"ООО «МКМ-Логистика»","WorkingHours":"понедельник выходной; вторник выходной; среда выходной; четверг выходной; пятница выходной; суббота 12:15-13:15; воскресенье выходной","ClarificationOfWorkingHours":"каждая 1 и 3 суббота месяца - 12:15-13:15;","geoData":{"type":"Point","coordinates":[37.549314681671,55.546139007061]}}},"type":"Feature"},{"geometry":{"coordinates":[37.550128609217,55.543455100896],"type":"Point"},"properties":{"DatasetId":2028,"VersionNumber":1,"ReleaseNumber":1,"RowId":"ca87efad-453b-45b5-ac53-57dd63a10a4e","Attributes":{"global_id":39812867,"system_object_id":"69","ID":69,"Name":"Мобильный пункт приема вторсырья № 61","AdmArea":["Юго-Западный административный округ"],"District":["район Южное Бутово"],"Address":"Венёвская улица, дом 19","NameOfBusinessEntity":"ООО «МКМ-Логистика»","WorkingHours":"понедельник выходной; вторник выходной; среда выходной; четверг выходной; пятница выходной; суббота 12:15-13:15; воскресенье выходной","ClarificationOfWorkingHours":"каждая 1 и 3 суббота месяца - 12:15-13:15;","geoData":{"type":"Point","coordinates":[37.550128609217,55.543455100896]}}},"type":"Feature"},{"geometry":{"coordinates":[37.509390839329,55.540861184101],"type":"Point"},"properties":{"DatasetId":2028,"VersionNumber":1,"ReleaseNumber":1,"RowId":"1f813b37-7d9f-45ab-92cf-daed037ae3be","Attributes":{"global_id":39812869,"system_object_id":"70","ID":70,"Name":"Мобильный пункт приема вторсырья № 62","AdmArea":["Юго-Западный административный округ"],"District":["район Южное Бутово"],"Address":"улица Адмирала Лазарева, дом 62, корпус 1","NameOfBusinessEntity":"ООО «МКМ-Логистика»","WorkingHours":"понедельник выходной; вторник выходной; среда выходной; четверг 08:30-09:30; 16:30-17:30; пятница выходной; суббота выходной; воскресенье выходной","ClarificationOfWorkingHours":"каждый 1 четверг месяца - 08:30-09:30; каждый 3 четверг месяца - 16:30-17:30","geoData":{"type":"Point","coordinates":[37.509390839329,55.540861184101]}}},"type":"Feature"},{"geometry":{"coordinates":[37.517542992142,55.542413224922],"type":"Point"},"properties":{"DatasetId":2028,"VersionNumber":1,"ReleaseNumber":1,"RowId":"4997923e-7b18-43b2-bfbd-d2be2449b40d","Attributes":{"global_id":39812870,"system_object_id":"71","ID":71,"Name":"Мобильный пункт приема вторсырья № 63","AdmArea":["Юго-Западный административный округ"],"District":["район Южное Бутово"],"Address":"улица Адмирала Лазарева, дом 52","NameOfBusinessEntity":"ООО «МКМ-Логистика»","WorkingHours":"понедельник выходной; вторник выходной; среда выходной; четверг 08:30-09:30; 16:30-17:30; пятница выходной; суббота выходной; воскресенье выходной","ClarificationOfWorkingHours":"каждый 1 четверг месяца - 08:30-09:30; каждый 3 четверг месяца - 16:30-17:30","geoData":{"type":"Point","coordinates":[37.517542992142,55.542413224922]}}},"type":"Feature"},{"geometry":{"coordinates":[37.502559288137,55.53216737798],"type":"Point"},"properties":{"DatasetId":2028,"VersionNumber":1,"ReleaseNumber":1,"RowId":"26092d65-3825-41e2-8882-c2ca5e4c3138","Attributes":{"global_id":39812872,"system_object_id":"72","ID":72,"Name":"Мобильный пункт приема вторсырья № 64","AdmArea":["Юго-Западный административный округ"],"District":["район Южное Бутово"],"Address":"Остафьевская улица, дом 8, корпус 2","NameOfBusinessEntity":"ООО «МКМ-Логистика»","WorkingHours":"понедельник выходной; вторник выходной; среда выходной; четверг 09:45-10:45; 17:45-18:45; пятница выходной; суббота выходной; воскресенье выходной","ClarificationOfWorkingHours":"каждый 1 четверг месяца - 09:45-10:45; каждый 3 четверг месяца - 17:45-18:45","geoData":{"type":"Point","coordinates":[37.502559288137,55.53216737798]}}},"type":"Feature"},{"geometry":{"coordinates":[37.579447370709,55.540007905979],"type":"Point"},"properties":{"DatasetId":2028,"VersionNumber":1,"ReleaseNumber":1,"RowId":"06fc9f4c-2fdc-4272-a0fa-e7604c791cb3","Attributes":{"global_id":39812874,"system_object_id":"73","ID":73,"Name":"Мобильный пункт приема вторсырья № 65","AdmArea":["Юго-Западный административный округ"],"District":["район Южное Бутово"],"Address":"1-я Мелитопольская улица, дом 8","NameOfBusinessEntity":"ООО «МКМ-Логистика»","WorkingHours":"понедельник выходной; вторник выходной; среда выходной; четверг 11:00-12:00; 19:00-20:00; пятница выходной; суббота выходной; воскресенье выходной","ClarificationOfWorkingHours":"каждый 1 четверг месяца - 11:00-12:00; каждый 3 четверг месяца - 19:00-20:00","geoData":{"type":"Point","coordinates":[37.579447370709,55.540007905979]}}},"type":"Feature"},{"geometry":{"coordinates":[37.532755506931,55.538553708033],"type":"Point"},"properties":{"DatasetId":2028,"VersionNumber":1,"ReleaseNumber":1,"RowId":"4257eb00-ff56-4f62-b5e2-f66f4a9f7ba0","Attributes":{"global_id":39812875,"system_object_id":"74","ID":74,"Name":"Мобильный пункт приема вторсырья № 66","AdmArea":["Юго-Западный административный округ"],"District":["район Южное Бутово"],"Address":"Южнобутовская улица, дом 50","NameOfBusinessEntity":"ООО «МКМ-Логистика»","WorkingHours":"понедельник выходной; вторник выходной; среда выходной; четверг выходной; пятница выходной; суббота 08:30-09:30; воскресенье выходной","ClarificationOfWorkingHours":"каждая 2 и 4 суббота месяца - 08:30-09:30;","geoData":{"type":"Point","coordinates":[37.532755506931,55.538553708033]}}},"type":"Feature"},{"geometry":{"coordinates":[37.519477697363,55.534939115987],"type":"Point"},"properties":{"DatasetId":2028,"VersionNumber":1,"ReleaseNumber":1,"RowId":"fb74966b-0ee1-4a5a-9660-d4123a8e4a39","Attributes":{"global_id":39812877,"system_object_id":"75","ID":75,"Name":"Мобильный пункт приема вторсырья № 67","AdmArea":["Юго-Западный административный округ"],"District":["район Южное Бутово"],"Address":"Южнобутовская улица, дом 76","NameOfBusinessEntity":"ООО «МКМ-Логистика»","WorkingHours":"понедельник выходной; вторник выходной; среда выходной; четверг выходной; пятница выходной; суббота 08:30-09:30; воскресенье выходной","ClarificationOfWorkingHours":"каждая 2 и 4 суббота месяца - 08:30-09:30;","geoData":{"type":"Point","coordinates":[37.519477697363,55.534939115987]}}},"type":"Feature"},{"geometry":{"coordinates":[37.540604463064,55.544088825788],"type":"Point"},"properties":{"DatasetId":2028,"VersionNumber":1,"ReleaseNumber":1,"RowId":"00318949-5068-4e4f-aaec-f817b98dfd0f","Attributes":{"global_id":39812879,"system_object_id":"76","ID":76,"Name":"Мобильный пункт приема вторсырья № 68","AdmArea":["Юго-Западный административный округ"],"District":["район Южное Бутово"],"Address":"Южнобутовская улица, дом 8","NameOfBusinessEntity":"ООО «МКМ-Логистика»","WorkingHours":"понедельник выходной; вторник выходной; среда выходной; четверг выходной; пятница выходной; суббота 09:45-10:45; воскресенье выходной","ClarificationOfWorkingHours":"каждая 2 и 4 суббота месяца - 09:45-10:45;","geoData":{"type":"Point","coordinates":[37.540604463064,55.544088825788]}}},"type":"Feature"},{"geometry":{"coordinates":[37.554493640862,55.543442436835],"type":"Point"},"properties":{"DatasetId":2028,"VersionNumber":1,"ReleaseNumber":1,"RowId":"ee48b237-e3d6-46df-865a-3d4ccf5d8923","Attributes":{"global_id":39812880,"system_object_id":"77","ID":77,"Name":"Мобильный пункт приема вторсырья № 69","AdmArea":["Юго-Западный административный округ"],"District":["район Южное Бутово"],"Address":"Скобелевская улица, дом 36","NameOfBusinessEntity":"ООО «МКМ-Логистика»","WorkingHours":"понедельник выходной; вторник выходной; среда выходной; четверг выходной; пятница выходной; суббота 09:45-10:45; воскресенье выходной","ClarificationOfWorkingHours":"каждая 2 и 4 суббота месяца - 09:45-10:45;","geoData":{"type":"Point","coordinates":[37.554493640862,55.543442436835]}}},"type":"Feature"},{"geometry":{"coordinates":[37.560189285852,55.544463212014],"type":"Point"},"properties":{"DatasetId":2028,"VersionNumber":1,"ReleaseNumber":1,"RowId":"a056994e-ef40-4923-94c6-02f15f5f65a2","Attributes":{"global_id":39812882,"system_object_id":"78","ID":78,"Name":"Мобильный пункт приема вторсырья № 70","AdmArea":["Юго-Западный административный округ"],"District":["район Южное Бутово"],"Address":"Изюмская улица, дом 50, корпус 1","NameOfBusinessEntity":"ООО «МКМ-Логистика»","WorkingHours":"понедельник выходной; вторник выходной; среда выходной; четверг выходной; пятница выходной; суббота 11:00-12:00; воскресенье выходной","ClarificationOfWorkingHours":"каждая 2 и 4 суббота месяца - 11:00-12:00;","geoData":{"type":"Point","coordinates":[37.560189285852,55.544463212014]}}},"type":"Feature"},{"geometry":{"coordinates":[37.569456915381,55.5471869808],"type":"Point"},"properties":{"DatasetId":2028,"VersionNumber":1,"ReleaseNumber":1,"RowId":"77d9bb5c-9ffc-48de-83dc-8279aa3acb2d","Attributes":{"global_id":39812883,"system_object_id":"79","ID":79,"Name":"Мобильный пункт приема вторсырья № 71","AdmArea":["Юго-Западный административный округ"],"District":["район Южное Бутово"],"Address":"Изюмская улица, дом 47, корпус 4","NameOfBusinessEntity":"ООО «МКМ-Логистика»","WorkingHours":"понедельник выходной; вторник выходной; среда выходной; четверг выходной; пятница выходной; суббота 11:00-12:00; воскресенье выходной","ClarificationOfWorkingHours":"каждая 2 и 4 суббота месяца - 11:00-12:00;","geoData":{"type":"Point","coordinates":[37.569456915381,55.5471869808]}}},"type":"Feature"},{"geometry":{"coordinates":[37.481529659962,55.529145465866],"type":"Point"},"properties":{"DatasetId":2028,"VersionNumber":1,"ReleaseNumber":1,"RowId":"3b13ac44-c654-4a9a-99ab-bbd568e58485","Attributes":{"global_id":39812885,"system_object_id":"80","ID":80,"Name":"Стационарный пункт приема вторсырья № 9","AdmArea":["Юго-Западный административный округ"],"District":["район Южное Бутово"],"Address":"Остафьевская улица, домовладение 43, корпус 1","NameOfBusinessEntity":"ООО «МКМ-Логистика»","WorkingHours":"понедельник круглосуточно; вторник круглосуточно; среда круглосуточно; четверг круглосуточно; пятница круглосуточно; суббота круглосуточно; воскресенье круглосуточно;","ClarificationOfWorkingHours":null,"geoData":{"type":"Point","coordinates":[37.481529659962,55.529145465866]}}},"type":"Feature"},{"geometry":{"coordinates":[37.555378052921,55.602517301175],"type":"Point"},"properties":{"DatasetId":2028,"VersionNumber":1,"ReleaseNumber":1,"RowId":"d8f67e00-d287-41b1-961d-aa9c7ba60d6b","Attributes":{"global_id":39812887,"system_object_id":"81","ID":81,"Name":"Мобильный пункт приема вторсырья № 72","AdmArea":["Юго-Западный административный округ"],"District":["район Ясенево"],"Address":"Новоясеневский проспект, дом 25/20","NameOfBusinessEntity":"ООО «МКМ-Логистика»","WorkingHours":"понедельник выходной; вторник выходной; среда 08:30-09:30; 16:30-17:30; четверг выходной; пятница выходной; суббота выходной; воскресенье выходной","ClarificationOfWorkingHours":"каждая 1 среда месяца - 08:30-09:30; каждая 3 среда месяца - 16:30-17:30","geoData":{"type":"Point","coordinates":[37.555378052921,55.602517301175]}}},"type":"Feature"},{"geometry":{"coordinates":[37.546793718828,55.612909050004],"type":"Point"},"properties":{"DatasetId":2028,"VersionNumber":1,"ReleaseNumber":1,"RowId":"826211d3-99c6-4da8-9f1b-723ffd2ead0a","Attributes":{"global_id":39812888,"system_object_id":"82","ID":82,"Name":"Мобильный пункт приема вторсырья № 73","AdmArea":["Юго-Западный административный округ"],"District":["район Ясенево"],"Address":"улица Рокотова, дом 8, корпус 5","NameOfBusinessEntity":"ООО «МКМ-Логистика»","WorkingHours":"понедельник выходной; вторник выходной; среда 08:30-09:30; 16:30-17:30; четверг выходной; пятница выходной; суббота выходной; воскресенье выходной","ClarificationOfWorkingHours":"каждая 1 среда месяца - 08:30-09:30; каждая 3 среда месяца - 16:30-17:30","geoData":{"type":"Point","coordinates":[37.546793718828,55.612909050004]}}},"type":"Feature"},{"geometry":{"coordinates":[37.515239398242,55.605923958042],"type":"Point"},"properties":{"DatasetId":2028,"VersionNumber":1,"ReleaseNumber":1,"RowId":"03bef74f-a438-41b3-abbe-80869a4fcf87","Attributes":{"global_id":39812891,"system_object_id":"83","ID":83,"Name":"Мобильный пункт приема вторсырья № 74","AdmArea":["Юго-Западный административный округ"],"District":["район Ясенево"],"Address":"Голубинская улица, дом 7, корпус 2","NameOfBusinessEntity":"ООО «МКМ-Логистика»","WorkingHours":"понедельник выходной; вторник выходной; среда 09:45-10:45; 17:45-18:45; четверг выходной; пятница выходной; суббота выходной; воскресенье выходной","ClarificationOfWorkingHours":"каждая 1 среда месяца - 09:45-10:45; каждая 3 среда месяца - 17:45-18:45","geoData":{"type":"Point","coordinates":[37.515239398242,55.605923958042]}}},"type":"Feature"},{"geometry":{"coordinates":[37.512951260754,55.598220325099],"type":"Point"},"properties":{"DatasetId":2028,"VersionNumber":1,"ReleaseNumber":1,"RowId":"53021c12-824b-4655-a310-ddea90085618","Attributes":{"global_id":39812893,"system_object_id":"84","ID":84,"Name":"Мобильный пункт приема вторсырья № 75","AdmArea":["Юго-Западный административный округ"],"District":["район Ясенево"],"Address":"проезд Одоевского, дом 11, корпус 7","NameOfBusinessEntity":"ООО «МКМ-Логистика»","WorkingHours":"понедельник выходной; вторник выходной; среда 09:45-10:45; 17:45-18:45; четверг выходной; пятница выходной; суббота выходной; воскресенье выходной","ClarificationOfWorkingHours":"каждая 1 среда месяца - 09:45-10:45; каждая 3 среда месяца - 17:45-18:45","geoData":{"type":"Point","coordinates":[37.512951260754,55.598220325099]}}},"type":"Feature"},{"geometry":{"coordinates":[37.545396118112,55.594298877083],"type":"Point"},"properties":{"DatasetId":2028,"VersionNumber":1,"ReleaseNumber":1,"RowId":"dcf9d02e-37d0-45c3-b7d0-a4e4099ceba6","Attributes":{"global_id":39812895,"system_object_id":"85","ID":85,"Name":"Мобильный пункт приема вторсырья № 76","AdmArea":["Юго-Западный административный округ"],"District":["район Ясенево"],"Address":"Голубинская улица, дом 32/2","NameOfBusinessEntity":"ООО «МКМ-Логистика»","WorkingHours":"понедельник выходной; вторник выходной; среда 11:00-12:00; 19:00-20:00; четверг выходной; пятница выходной; суббота выходной; воскресенье выходной","ClarificationOfWorkingHours":"каждая 1 среда месяца - 11:00-12:00; каждая 3 среда месяца - 19:00-20:00","geoData":{"type":"Point","coordinates":[37.545396118112,55.594298877083]}}},"type":"Feature"},{"geometry":{"coordinates":[37.543674580414,55.591555010057],"type":"Point"},"properties":{"DatasetId":2028,"VersionNumber":1,"ReleaseNumber":1,"RowId":"4eb6c0e3-eb01-447e-a82e-b2634e323b96","Attributes":{"global_id":39812897,"system_object_id":"86","ID":86,"Name":"Мобильный пункт приема вторсырья № 77","AdmArea":["Юго-Западный административный округ"],"District":["район Ясенево"],"Address":"улица Инессы Арманд, дом 4, корпус 1","NameOfBusinessEntity":"ООО «МКМ-Логистика»","WorkingHours":"понедельник выходной; вторник выходной; среда 11:00-12:00; 19:00-20:00; четверг выходной; пятница выходной; суббота выходной; воскресенье выходной","ClarificationOfWorkingHours":"каждая 1 среда месяца - 11:00-12:00; каждая 3 среда месяца - 19:00-20:00","geoData":{"type":"Point","coordinates":[37.543674580414,55.591555010057]}}},"type":"Feature"},{"geometry":{"coordinates":[37.540862673013,55.599898610233],"type":"Point"},"properties":{"DatasetId":2028,"VersionNumber":1,"ReleaseNumber":1,"RowId":"123643ed-74bc-4719-b753-18e07bba41e4","Attributes":{"global_id":39812898,"system_object_id":"87","ID":87,"Name":"Мобильный пункт приема вторсырья № 78","AdmArea":["Юго-Западный административный округ"],"District":["район Ясенево"],"Address":"улица Паустовского, дом 5, корпус 1","NameOfBusinessEntity":"ООО «МКМ-Логистика»","WorkingHours":"понедельник выходной; вторник выходной; среда 12:15-13:15; 20:15-21:15; четверг выходной; пятница выходной; суббота выходной; воскресенье выходной","ClarificationOfWorkingHours":"каждая 1 среда месяца - 12:15-13:15; каждая 3 среда месяца - 20:15-21:15","geoData":{"type":"Point","coordinates":[37.540862673013,55.599898610233]}}},"type":"Feature"},{"geometry":{"coordinates":[37.534714626565,55.604378583962],"type":"Point"},"properties":{"DatasetId":2028,"VersionNumber":1,"ReleaseNumber":1,"RowId":"d6ed64b6-4861-44b6-9f84-443ec1fbc3dd","Attributes":{"global_id":39812901,"system_object_id":"88","ID":88,"Name":"Мобильный пункт приема вторсырья № 79","AdmArea":["Юго-Западный административный округ"],"District":["район Ясенево"],"Address":"Ясногорская улица, дом 13, корпус 1","NameOfBusinessEntity":"ООО «МКМ-Логистика»","WorkingHours":"понедельник выходной; вторник выходной; среда 12:15-13:15; 20:15-21:15; четверг выходной; пятница выходной; суббота выходной; воскресенье выходной","ClarificationOfWorkingHours":"каждая 1 среда месяца - 12:15-13:15; каждая 3 среда месяца - 20:15-21:15","geoData":{"type":"Point","coordinates":[37.534714626565,55.604378583962]}}},"type":"Feature"},{"geometry":{"coordinates":[37.53971289323,55.616989579797],"type":"Point"},"properties":{"DatasetId":2028,"VersionNumber":1,"ReleaseNumber":1,"RowId":"4fef325e-e492-4a76-9213-f2a1e7b51e70","Attributes":{"global_id":39812903,"system_object_id":"89","ID":89,"Name":"Мобильный пункт приема вторсырья № 80","AdmArea":["Юго-Западный административный округ"],"District":["район Ясенево"],"Address":"улица Айвазовского, дом 6, корпус 1","NameOfBusinessEntity":"ООО «МКМ-Логистика»","WorkingHours":"понедельник выходной; вторник выходной; среда 11:00-12:00; 19:00-20:00; четверг выходной; пятница выходной; суббота выходной; воскресенье выходной","ClarificationOfWorkingHours":"каждая 2 среда месяца - 11:00-12:00; каждая 4 среда месяца - 19:00-20:00","geoData":{"type":"Point","coordinates":[37.53971289323,55.616989579797]}}},"type":"Feature"},{"geometry":{"coordinates":[37.534443477283,55.616517064243],"type":"Point"},"properties":{"DatasetId":2028,"VersionNumber":1,"ReleaseNumber":1,"RowId":"b55797d0-331c-44bd-94f7-30b48031adf5","Attributes":{"global_id":39812904,"system_object_id":"90","ID":90,"Name":"Мобильный пункт приема вторсырья № 81","AdmArea":["Юго-Западный административный округ"],"District":["район Ясенево"],"Address":"Литовский бульвар, дом 3, корпус 2","NameOfBusinessEntity":"ООО «МКМ-Логистика»","WorkingHours":"понедельник выходной; вторник выходной; среда 11:00-12:00; 19:00-20:00; четверг выходной; пятница выходной; суббота выходной; воскресенье выходной","ClarificationOfWorkingHours":"каждая 2 среда месяца - 11:00-12:00; каждая 4 среда месяца - 19:00-20:00","geoData":{"type":"Point","coordinates":[37.534443477283,55.616517064243]}}},"type":"Feature"},{"geometry":{"coordinates":[37.558073353607,55.597558132123],"type":"Point"},"properties":{"DatasetId":2028,"VersionNumber":1,"ReleaseNumber":1,"RowId":"20fe8a75-3cf0-419e-a0de-e19af47bbe2a","Attributes":{"global_id":39812906,"system_object_id":"91","ID":91,"Name":"Стационарный пункт приема вторсырья № 10","AdmArea":["Юго-Западный административный округ"],"District":["район Ясенево"],"Address":"Новоясеневский тупик, дом 1, строение 1","NameOfBusinessEntity":"ООО «МКМ-Логистика»","WorkingHours":"понедельник 09:00-16:00; вторник 09:00-16:00; среда 09:00-16:00; четверг 09:00-16:00; пятница 09:00-16:00; суббота 09:00-16:00; воскресенье выходной;","ClarificationOfWorkingHours":null,"geoData":{"type":"Point","coordinates":[37.558073353607,55.597558132123]}}},"type":"Feature"},{"geometry":{"coordinates":[37.523147510233,55.603753076933],"type":"Point"},"properties":{"DatasetId":2028,"VersionNumber":1,"ReleaseNumber":1,"RowId":"c1eff288-49e5-4f76-aa40-d314a2d49d83","Attributes":{"global_id":39812908,"system_object_id":"92","ID":92,"Name":"Стационарный пункт приема вторсырья № 11","AdmArea":["Юго-Западный административный округ"],"District":["район Ясенево"],"Address":"Вильнюсская улица, дом 5","NameOfBusinessEntity":"ООО «МКМ-Логистика»","WorkingHours":"понедельник 09:00-16:00; вторник 09:00-16:00; среда 09:00-16:00; четверг 09:00-16:00; пятница 09:00-16:00; суббота 09:00-16:00; воскресенье 09:00-13:00;","ClarificationOfWorkingHours":null,"geoData":{"type":"Point","coordinates":[37.523147510233,55.603753076933]}}},"type":"Feature"},{"geometry":{"coordinates":[37.253984529999,55.611354632762],"type":"Point"},"properties":{"DatasetId":2028,"VersionNumber":1,"ReleaseNumber":1,"RowId":"cf38e26a-191f-4fbb-af0c-5586186f8ee2","Attributes":{"global_id":39812909,"system_object_id":"93","ID":93,"Name":"Мобильный пункт приема вторсырья № 82","AdmArea":["Западный административный округ"],"District":["район Внуково"],"Address":"Изваринская улица, дом 2","NameOfBusinessEntity":"ООО «МКМ-Логистика»","WorkingHours":"понедельник выходной; вторник выходной; среда 08:00-09:00; 15:30 - 16:30; четверг выходной; пятница выходной; суббота выходной; воскресенье выходной","ClarificationOfWorkingHours":"каждая 1 среда месяца - 08:00-09:00; каждая 3 среда месяца - 15:30 - 16:30","geoData":{"type":"Point","coordinates":[37.253984529999,55.611354632762]}}},"type":"Feature"},{"geometry":{"coordinates":[37.544763941307,55.742545946107],"type":"Point"},"properties":{"DatasetId":2028,"VersionNumber":1,"ReleaseNumber":1,"RowId":"6696e739-3b80-4943-a487-ad1d4c499372","Attributes":{"global_id":39812911,"system_object_id":"94","ID":94,"Name":"Мобильный пункт приема вторсырья № 83","AdmArea":["Западный административный округ"],"District":["район Дорогомилово"],"Address":"Студенческая улица, дом 28, корпус 3","NameOfBusinessEntity":"ООО «МКМ-Логистика»","WorkingHours":"понедельник выходной; вторник выходной; среда выходной; четверг выходной; пятница выходной; суббота 08:00-09:00; воскресенье выходной;","ClarificationOfWorkingHours":"1 и 3 суббота месяца - 08:00-09:00","geoData":{"type":"Point","coordinates":[37.544763941307,55.742545946107]}}},"type":"Feature"},{"geometry":{"coordinates":[37.419376050108,55.758861203931],"type":"Point"},"properties":{"DatasetId":2028,"VersionNumber":1,"ReleaseNumber":1,"RowId":"5f4fb0ed-f685-45fe-9b87-1b94f30d41b2","Attributes":{"global_id":39812912,"system_object_id":"95","ID":95,"Name":"Мобильный пункт приема вторсырья № 84","AdmArea":["Западный административный округ"],"District":["район Крылатское"],"Address":"улица Крылатские Холмы, дом 35, корпус 1","NameOfBusinessEntity":"ООО «МКМ-Логистика»","WorkingHours":"понедельник 08:00 - 09:00; 15:00 - 16:00 вторник выходной; среда выходной; четверг выходной; пятница выходной; суббота выходной; воскресенье выходной","ClarificationOfWorkingHours":"каждый 2 понедельник месяца - 08:00-09:00; каждый 4 понедельник месяца - 16:00 - 76:00","geoData":{"type":"Point","coordinates":[37.419376050108,55.758861203931]}}},"type":"Feature"},{"geometry":{"coordinates":[37.41935288076,55.748935709004],"type":"Point"},"properties":{"DatasetId":2028,"VersionNumber":1,"ReleaseNumber":1,"RowId":"aec44b02-a121-455c-97b1-c6a61d904139","Attributes":{"global_id":39812914,"system_object_id":"96","ID":96,"Name":"Мобильный пункт приема вторсырья № 85","AdmArea":["Западный административный округ"],"District":["район Крылатское"],"Address":"Рублёвское шоссе, дом 34, корпус 2","NameOfBusinessEntity":"ООО «МКМ-Логистика»","WorkingHours":"понедельник 09:10 - 10:10; 17:10 - 18:10 вторник выходной; среда выходной; четверг выходной; пятница выходной; суббота выходной; воскресенье выходной","ClarificationOfWorkingHours":"каждый 2 понедельник месяца - 09:10 - 10:10 каждый 3 понедельник месяца - 17:10 - 18:10","geoData":{"type":"Point","coordinates":[37.41935288076,55.748935709004]}}},"type":"Feature"},{"geometry":{"coordinates":[37.407343700782,55.73328812402],"type":"Point"},"properties":{"DatasetId":2028,"VersionNumber":1,"ReleaseNumber":1,"RowId":"633d3ac1-d3e7-4352-847b-5f61723b30ef","Attributes":{"global_id":39812915,"system_object_id":"97","ID":97,"Name":"Мобильный пункт приема вторсырья № 86","AdmArea":["Западный административный округ"],"District":["район Кунцево"],"Address":"Молодогвардейская улица, дом 49","NameOfBusinessEntity":"ООО «МКМ-Логистика»","WorkingHours":"понедельник 08:00 - 09:00; 16:00 - 17:00 вторник выходной; среда выходной; четверг выходной; пятница выходной; суббота выходной; воскресенье выходной","ClarificationOfWorkingHours":"каждый 1 понедельник месяца - 08:00 - 09:00 каждый 3 понедельник месяца - 16:00 - 17:00","geoData":{"type":"Point","coordinates":[37.407343700782,55.73328812402]}}},"type":"Feature"},{"geometry":{"coordinates":[37.407435083701,55.734441086023],"type":"Point"},"properties":{"DatasetId":2028,"VersionNumber":1,"ReleaseNumber":1,"RowId":"958784d9-5228-4a5e-acc4-0db4703f202a","Attributes":{"global_id":39813238,"system_object_id":"98","ID":98,"Name":"Мобильный пункт приема вторсырья № 87","AdmArea":["Западный административный округ"],"District":["район Кунцево"],"Address":"Ярцевская улица, дом 2","NameOfBusinessEntity":"ООО «МКМ-Логистика»","WorkingHours":"понедельник 09:10 - 10:10; 17:10 - 18:10 вторник выходной; среда выходной; четверг выходной; пятница выходной; суббота выходной; воскресенье выходной","ClarificationOfWorkingHours":"каждый 1 понедельник месяца - 09:10 - 10:10 каждый 3 понедельник месяца - 17:10 - 18:10","geoData":{"type":"Point","coordinates":[37.407435083701,55.734441086023]}}},"type":"Feature"},{"geometry":{"coordinates":[37.422321464228,55.733415707017],"type":"Point"},"properties":{"DatasetId":2028,"VersionNumber":1,"ReleaseNumber":1,"RowId":"bfbc2b12-17d1-4de8-91b7-596485fc2f0e","Attributes":{"global_id":39813240,"system_object_id":"99","ID":99,"Name":"Мобильный пункт приема вторсырья № 88","AdmArea":["Западный административный округ"],"District":["район Кунцево"],"Address":"Молодогвардейская улица, дом 19, корпус 1","NameOfBusinessEntity":"ООО «МКМ-Логистика»","WorkingHours":"понедельник 11:30 - 12:30; 17:10 - 18:10 вторник выходной; среда выходной; четверг выходной; пятница выходной; суббота выходной; воскресенье выходной","ClarificationOfWorkingHours":"каждый 1 понедельник месяца - 11:30 - 12:3 каждый 3 понедельник месяца - 17:10 - 18:10","geoData":{"type":"Point","coordinates":[37.422321464228,55.733415707017]}}},"type":"Feature"},{"geometry":{"coordinates":[37.399797174167,55.742205748146],"type":"Point"},"properties":{"DatasetId":2028,"VersionNumber":1,"ReleaseNumber":1,"RowId":"ef0aa2d4-d4b3-40e0-8897-505c21d64c32","Attributes":{"global_id":39813242,"system_object_id":"100","ID":100,"Name":"Мобильный пункт приема вторсырья № 89","AdmArea":["Западный административный округ"],"District":["район Кунцево"],"Address":"Партизанская улица, дом 53","NameOfBusinessEntity":"ООО «МКМ-Логистика»","WorkingHours":"понедельник 12:40 - 13:40; 20:40 - 21:40 вторник выходной; среда выходной; четверг выходной; пятница выходной; суббота выходной; воскресенье выходной","ClarificationOfWorkingHours":"каждый 1 понедельник месяца - 12:40 - 13:40 каждый 3 понедельник месяца - 20:40 - 21:40","geoData":{"type":"Point","coordinates":[37.399797174167,55.742205748146]}}},"type":"Feature"},{"geometry":{"coordinates":[37.436244192305,55.73615823803],"type":"Point"},"properties":{"DatasetId":2028,"VersionNumber":1,"ReleaseNumber":1,"RowId":"1395ee43-f16c-4033-a0d4-f3c4d2b9aabc","Attributes":{"global_id":39813244,"system_object_id":"101","ID":101,"Name":"Мобильный пункт приема вторсырья № 90","AdmArea":["Западный административный округ"],"District":["район Кунцево"],"Address":"Истринская улица, дом 10, корпус 2","NameOfBusinessEntity":"ООО «МКМ-Логистика»","WorkingHours":"понедельник 13:50 - 14:50; 20:40 – 21:40 вторник выходной; среда выходной; четверг выходной; пятница выходной; суббота выходной; воскресенье выходной","ClarificationOfWorkingHours":"каждый 1 понедельник месяца - 13:50 - 14:50 каждый 3 понедельник месяца - 20:40 – 21:40","geoData":{"type":"Point","coordinates":[37.436244192305,55.73615823803]}}},"type":"Feature"},{"geometry":{"coordinates":[37.401716166955,55.724429041161],"type":"Point"},"properties":{"DatasetId":2028,"VersionNumber":1,"ReleaseNumber":1,"RowId":"20602e3b-8193-45ad-8dcf-6787cc596e7e","Attributes":{"global_id":39813245,"system_object_id":"102","ID":102,"Name":"Мобильный пункт приема вторсырья № 91","AdmArea":["Западный административный округ"],"District":["Можайский район"],"Address":"улица Маршала Неделина, дом 4","NameOfBusinessEntity":"ООО «МКМ-Логистика»","WorkingHours":"понедельник 10:20 - 11:20; 17:20 – 18:20 вторник выходной; среда выходной; четверг выходной; пятница выходной; суббота выходной; воскресенье выходной","ClarificationOfWorkingHours":"каждый 2 понедельник месяца - 10:20 - 11:20 каждый 4 понедельник месяца - 17:20 – 18:20","geoData":{"type":"Point","coordinates":[37.401716166955,55.724429041161]}}},"type":"Feature"},{"geometry":{"coordinates":[37.425190607787,55.724137923129],"type":"Point"},"properties":{"DatasetId":2028,"VersionNumber":1,"ReleaseNumber":1,"RowId":"62ae1a6b-d569-4f22-b282-77cee971478e","Attributes":{"global_id":39813247,"system_object_id":"103","ID":103,"Name":"Мобильный пункт приема вторсырья № 92","AdmArea":["Западный административный округ"],"District":["Можайский район"],"Address":"Гвардейская улица, дом 14","NameOfBusinessEntity":"ООО «МКМ-Логистика»","WorkingHours":"понедельник 11:30 - 12:30; 18:30 – 19:30 вторник выходной; среда выходной; четверг выходной; пятница выходной; суббота выходной; воскресенье выходной","ClarificationOfWorkingHours":"каждый 2 понедельник месяца - 11:30 - 12:30 каждый 4 понедельник месяца - 18:30 – 19:30","geoData":{"type":"Point","coordinates":[37.425190607787,55.724137923129]}}},"type":"Feature"},{"geometry":{"coordinates":[37.435036040893,55.715420426973],"type":"Point"},"properties":{"DatasetId":2028,"VersionNumber":1,"ReleaseNumber":1,"RowId":"f2c1f742-d106-49c1-9566-cf505dc32873","Attributes":{"global_id":39813250,"system_object_id":"104","ID":104,"Name":"Мобильный пункт приема вторсырья № 93","AdmArea":["Западный административный округ"],"District":["Можайский район"],"Address":"Гжатская улица, дом 16","NameOfBusinessEntity":"ООО «МКМ-Логистика»","WorkingHours":"понедельник 12:40 - 13:40; 19:40 – 20:40 вторник выходной; среда выходной; четверг выходной; пятница выходной; суббота выходной; воскресенье выходной","ClarificationOfWorkingHours":"каждый 2 понедельник месяца - 12:40 - 13:40 каждый 4 понедельник месяца - 19:40 – 20:40","geoData":{"type":"Point","coordinates":[37.435036040893,55.715420426973]}}},"type":"Feature"},{"geometry":{"coordinates":[37.443627832799,55.723141759781],"type":"Point"},"properties":{"DatasetId":2028,"VersionNumber":1,"ReleaseNumber":1,"RowId":"5afee8d6-5b24-4435-99a3-faa36ee42448","Attributes":{"global_id":39813252,"system_object_id":"105","ID":105,"Name":"Мобильный пункт приема вторсырья № 94","AdmArea":["Западный административный округ"],"District":["Можайский район"],"Address":"Можайское шоссе, дом 4, корпус 1","NameOfBusinessEntity":"ООО «МКМ-Логистика»","WorkingHours":"понедельник 13:50 - 14:50; 20:50 – 21:50 вторник выходной; среда выходной; четверг выходной; пятница выходной; суббота выходной; воскресенье выходной","ClarificationOfWorkingHours":"каждый 2 понедельник месяца - 13:50 - 14:50 каждый 4 понедельник месяца - 20:50 – 21:50","geoData":{"type":"Point","coordinates":[37.443627832799,55.723141759781]}}},"type":"Feature"},{"geometry":{"coordinates":[37.400373288013,55.707977705918],"type":"Point"},"properties":{"DatasetId":2028,"VersionNumber":1,"ReleaseNumber":1,"RowId":"1e42b38a-6626-4ec9-a6ff-447810997723","Attributes":{"global_id":39813255,"system_object_id":"106","ID":106,"Name":"Мобильный пункт приема вторсырья № 95","AdmArea":["Западный административный округ"],"District":["Можайский район"],"Address":"Сколковское шоссе, дом 24","NameOfBusinessEntity":"ООО «МКМ-Логистика»","WorkingHours":"понедельник 15:00 - 16:00; 20:00 – 23:00 вторник выходной; среда выходной; четверг выходной; пятница выходной; суббота выходной; воскресенье выходной","ClarificationOfWorkingHours":"каждый 2 понедельник месяца - 15:00 - 16:00 каждый 4 понедельник месяца - 20:00 – 23:00","geoData":{"type":"Point","coordinates":[37.400373288013,55.707977705918]}}},"type":"Feature"},{"geometry":{"coordinates":[37.369818820186,55.650221631883],"type":"Point"},"properties":{"DatasetId":2028,"VersionNumber":1,"ReleaseNumber":1,"RowId":"090e33d2-e0df-4714-8f0e-9c862c8bde29","Attributes":{"global_id":39813256,"system_object_id":"107","ID":107,"Name":"Мобильный пункт приема вторсырья № 96","AdmArea":["Западный административный округ"],"District":["район Ново-Переделкино"],"Address":"Боровское шоссе, дом 18, корпус 2","NameOfBusinessEntity":"ООО «МКМ-Логистика»","WorkingHours":"понедельник выходной; вторник выходной; среда 09:10 - 10:10; 16:40 – 17:40; четверг выходной; пятница выходной; суббота выходной; воскресенье выходной","ClarificationOfWorkingHours":"каждая 1 среда месяца - 09:10 - 10:10 каждая 3 среда месяца - 16:40 – 17:40","geoData":{"type":"Point","coordinates":[37.369818820186,55.650221631883]}}},"type":"Feature"},{"geometry":{"coordinates":[37.36021882029,55.639219843837],"type":"Point"},"properties":{"DatasetId":2028,"VersionNumber":1,"ReleaseNumber":1,"RowId":"65a97752-3826-44ff-bbcf-e4deba09444d","Attributes":{"global_id":39813258,"system_object_id":"108","ID":108,"Name":"Мобильный пункт приема вторсырья № 97","AdmArea":["Западный административный округ"],"District":["район Ново-Переделкино"],"Address":"Боровское шоссе, дом 37, корпус 3","NameOfBusinessEntity":"ООО «МКМ-Логистика»","WorkingHours":"понедельник выходной; вторник выходной; среда 10:20 - 11:20; 17:50 – 18:50; четверг выходной; пятница выходной; суббота выходной; воскресенье выходной","ClarificationOfWorkingHours":"каждая 1 среда месяца - 10:20 - 11:20 каждая 3 среда месяца - 17:50 – 18:50","geoData":{"type":"Point","coordinates":[37.36021882029,55.639219843837]}}},"type":"Feature"},{"geometry":{"coordinates":[37.338999646692,55.64252599608],"type":"Point"},"properties":{"DatasetId":2028,"VersionNumber":1,"ReleaseNumber":1,"RowId":"8ba8dd1b-c892-4df2-978c-a54c6a56e124","Attributes":{"global_id":39813260,"system_object_id":"109","ID":109,"Name":"Мобильный пункт приема вторсырья № 98","AdmArea":["Западный административный округ"],"District":["район Ново-Переделкино"],"Address":"Лукинская улица, дом 9","NameOfBusinessEntity":"ООО «МКМ-Логистика»","WorkingHours":"понедельник выходной; вторник выходной; среда 11:30 - 12:30; 19:00 – 20:00; четверг выходной; пятница выходной; суббота выходной; воскресенье выходной","ClarificationOfWorkingHours":"каждая 1 среда месяца - 11:30 - 12:30 каждая 3 среда месяца - 19:00 – 20:00","geoData":{"type":"Point","coordinates":[37.338999646692,55.64252599608]}}},"type":"Feature"},{"geometry":{"coordinates":[37.358488718054,55.636055245878],"type":"Point"},"properties":{"DatasetId":2028,"VersionNumber":1,"ReleaseNumber":1,"RowId":"33f8c1b9-61e8-4290-89c6-9d1662ea0f32","Attributes":{"global_id":39813261,"system_object_id":"110","ID":110,"Name":"Мобильный пункт приема вторсырья № 99","AdmArea":["Западный административный округ"],"District":["район Ново-Переделкино"],"Address":"улица Шолохова, дом 4","NameOfBusinessEntity":"ООО «МКМ-Логистика»","WorkingHours":"понедельник выходной; вторник выходной; среда 12:40 - 13:40; 20:10 – 21:10; четверг выходной; пятница выходной; суббота выходной; воскресенье выходной","ClarificationOfWorkingHours":"каждая 1 среда месяца - 12:40 - 13:40 каждая 3 среда месяца - 20:10 – 21:10","geoData":{"type":"Point","coordinates":[37.358488718054,55.636055245878]}}},"type":"Feature"},{"geometry":{"coordinates":[37.485203167603,55.710009377086],"type":"Point"},"properties":{"DatasetId":2028,"VersionNumber":1,"ReleaseNumber":1,"RowId":"5832fd7d-dbe4-41ae-9584-02397ee736bb","Attributes":{"global_id":39813263,"system_object_id":"111","ID":111,"Name":"Мобильный пункт приема вторсырья № 100","AdmArea":["Западный административный округ"],"District":["район Очаково-Матвеевское"],"Address":"Веерная улица, дом 16, корпус 2","NameOfBusinessEntity":"ООО «МКМ-Логистика»","WorkingHours":"понедельник выходной; вторник выходной; среда выходной; четверг выходной; пятница 12:40 - 13:40; 19:40 – 20:40; суббота выходной; воскресенье выходной","ClarificationOfWorkingHours":"каждая 1 пятница месяца - 12:40 - 13:40 каждая 3 пятница месяца - 19:40 – 20:40","geoData":{"type":"Point","coordinates":[37.485203167603,55.710009377086]}}},"type":"Feature"},{"geometry":{"coordinates":[37.467052015585,55.707543355248],"type":"Point"},"properties":{"DatasetId":2028,"VersionNumber":1,"ReleaseNumber":1,"RowId":"580580b8-a4d9-4b20-aa0f-b1fb825ac128","Attributes":{"global_id":39813264,"system_object_id":"112","ID":112,"Name":"Мобильный пункт приема вторсырья № 101","AdmArea":["Западный административный округ"],"District":["район Очаково-Матвеевское"],"Address":"Нежинская улица, дом 19, корпус 1","NameOfBusinessEntity":"ООО «МКМ-Логистика»","WorkingHours":"понедельник выходной; вторник выходной; среда выходной; четверг выходной; пятница 13:50 - 14:50; 20:50 – 21:50; суббота выходной; воскресенье выходной","ClarificationOfWorkingHours":"каждая 1 пятница месяца - 13:50 - 14:50; каждая 3 пятница месяца - 20:50 – 21:50","geoData":{"type":"Point","coordinates":[37.467052015585,55.707543355248]}}},"type":"Feature"},{"geometry":{"coordinates":[37.452574955112,55.682307815895],"type":"Point"},"properties":{"DatasetId":2028,"VersionNumber":1,"ReleaseNumber":1,"RowId":"f8278ed7-5a8b-46c7-a390-8822e0456587","Attributes":{"global_id":39813266,"system_object_id":"113","ID":113,"Name":"Мобильный пункт приема вторсырья № 102","AdmArea":["Западный административный округ"],"District":["район Очаково-Матвеевское"],"Address":"улица Наташи Ковшовой, дом 11","NameOfBusinessEntity":"ООО «МКМ-Логистика»","WorkingHours":"понедельник выходной; вторник выходной; среда выходной; четверг выходной; пятница 15:00 - 16:00; 22:00 – 23:00; суббота выходной; воскресенье выходной","ClarificationOfWorkingHours":"каждая 1 пятница месяца - 15:00 - 16:00; каждая 3 пятница месяца - 22:00 – 23:00;","geoData":{"type":"Point","coordinates":[37.452574955112,55.682307815895]}}},"type":"Feature"},{"geometry":{"coordinates":[37.424984757941,55.676708030117],"type":"Point"},"properties":{"DatasetId":2028,"VersionNumber":1,"ReleaseNumber":1,"RowId":"c828f418-33c2-4a3d-9f83-c9659337819f","Attributes":{"global_id":39813267,"system_object_id":"114","ID":114,"Name":"Стационарный пункт приема вторсырья № 12","AdmArea":["Западный административный округ"],"District":["район Очаково-Матвеевское"],"Address":"Рябиновая улица, дом 46-А","NameOfBusinessEntity":"ООО «МКМ-Логистика»","WorkingHours":"понедельник 09:00 - 16:00; вторник 09:00 - 16:00; среда 09:00 - 16:00; четверг 09:00 - 16:00; пятница 09:00 - 16:00; суббота 09:00 - 16:00; воскресенье выходной;","ClarificationOfWorkingHours":null,"geoData":{"type":"Point","coordinates":[37.424984757941,55.676708030117]}}},"type":"Feature"},{"geometry":{"coordinates":[37.516214964148,55.669478624025],"type":"Point"},"properties":{"DatasetId":2028,"VersionNumber":1,"ReleaseNumber":1,"RowId":"b3c77941-c526-4f36-ae37-58de18392edc","Attributes":{"global_id":39813270,"system_object_id":"115","ID":115,"Name":"Мобильный пункт приема вторсырья № 103","AdmArea":["Западный административный округ"],"District":["район Проспект Вернадского"],"Address":"Ленинский проспект, дом 94А","NameOfBusinessEntity":"ООО «МКМ-Логистика»","WorkingHours":"понедельник выходной; вторник выходной; среда выходной; четверг выходной; пятница выходной; суббота 08:00 - 09:00; воскресенье выходной","ClarificationOfWorkingHours":"2 и 4 суббота месяца 08:00 - 09:00","geoData":{"type":"Point","coordinates":[37.516214964148,55.669478624025]}}},"type":"Feature"},{"geometry":{"coordinates":[37.512431765025,55.670815787876],"type":"Point"},"properties":{"DatasetId":2028,"VersionNumber":1,"ReleaseNumber":1,"RowId":"fa8a9998-6c78-4bd5-b7be-183520045b9d","Attributes":{"global_id":39813272,"system_object_id":"116","ID":116,"Name":"Мобильный пункт приема вторсырья № 104","AdmArea":["Западный административный округ"],"District":["район Проспект Вернадского"],"Address":"улица Удальцова, дом 3, корпус 2","NameOfBusinessEntity":"ООО «МКМ-Логистика»","WorkingHours":"понедельник выходной; вторник выходной; среда выходной; четверг выходной; пятница выходной; суббота 09:10 - 10:10; воскресенье выходной","ClarificationOfWorkingHours":"2 и 4 суббота месяца 09:10 - 10:10","geoData":{"type":"Point","coordinates":[37.512431765025,55.670815787876]}}},"type":"Feature"},{"geometry":{"coordinates":[37.494968705446,55.678607267968],"type":"Point"},"properties":{"DatasetId":2028,"VersionNumber":1,"ReleaseNumber":1,"RowId":"09eabfc6-9035-487b-ba57-0394ed9d8da4","Attributes":{"global_id":39812950,"system_object_id":"117","ID":117,"Name":"Мобильный пункт приема вторсырья № 105","AdmArea":["Западный административный округ"],"District":["район Проспект Вернадского"],"Address":"улица Коштоянца, дом 5","NameOfBusinessEntity":"ООО «МКМ-Логистика»","WorkingHours":"понедельник выходной; вторник выходной; среда выходной; четверг выходной; пятница выходной; суббота 10:20 - 11:20; воскресенье выходной","ClarificationOfWorkingHours":"2 и 4 суббота месяца 10:20 - 11:20","geoData":{"type":"Point","coordinates":[37.494968705446,55.678607267968]}}},"type":"Feature"},{"geometry":{"coordinates":[37.523520488942,55.722735811104],"type":"Point"},"properties":{"DatasetId":2028,"VersionNumber":1,"ReleaseNumber":1,"RowId":"980d7b89-f7a5-473a-bf0f-57df1173b4bd","Attributes":{"global_id":39812952,"system_object_id":"118","ID":118,"Name":"Мобильный пункт приема вторсырья № 106","AdmArea":["Западный административный округ"],"District":["район Раменки"],"Address":"2-й Мосфильмовский переулок, дом 1","NameOfBusinessEntity":"ООО «МКМ-Логистика»","WorkingHours":"понедельник выходной; вторник выходной; среда 08:00-09:00; 15:00 - 16:00; четверг выходной; пятница выходной; суббота выходной; воскресенье выходной","ClarificationOfWorkingHours":"каждая 2 среда месяца - 08:00-09:00; каждая 4 среда месяца - 15:00 - 16:00","geoData":{"type":"Point","coordinates":[37.523520488942,55.722735811104]}}},"type":"Feature"},{"geometry":{"coordinates":[37.502138763397,55.708945650838],"type":"Point"},"properties":{"DatasetId":2028,"VersionNumber":1,"ReleaseNumber":1,"RowId":"56fe7318-7d7b-48a6-bd47-c5a3bcec6e1d","Attributes":{"global_id":39812953,"system_object_id":"119","ID":119,"Name":"Мобильный пункт приема вторсырья № 107","AdmArea":["Западный административный округ"],"District":["район Раменки"],"Address":"Мосфильмовская улица, дом 78","NameOfBusinessEntity":"ООО «МКМ-Логистика»","WorkingHours":"понедельник выходной; вторник выходной; среда 09:10-10:10; 16:10 - 17:10; четверг выходной; пятница выходной; суббота выходной; воскресенье выходной","ClarificationOfWorkingHours":"каждая 2 среда месяца - 09:10-10:10; каждая 4 среда месяца - 16:10 - 17:10","geoData":{"type":"Point","coordinates":[37.502138763397,55.708945650838]}}},"type":"Feature"},{"geometry":{"coordinates":[37.504880261744,55.692897889007],"type":"Point"},